"","SVN","STATION_KEY","SY","SITE_NAME","PREDATOR_Nov05_model","PREDATOR_Nov05_score","PREDATOR_Nov05_Condition","Year_Sampled","Ref_Samples","NewSample","FSS_May05_trans","AREAWTMAP","MAFLOWU_trans","SLOPE_trans","PRECIPSITE_MM_trans","STRMPOWER_trans","LONG_NHD_trans","LAT_NHD","ELEV_FT_trans","PCT_FSP3_trans","ERODRES_CAT","sample_status","biocriteria_status","biocriteria_status.OLD","FSS","Q75TH","fss_pred_trans","fss_pred","fss_pred_resids_trans","fss_pred_resids","Group","Q90TH","fss_resid_cond","sediment_resid_status","NEW_STATION","NEW_SAMPLE","NEW"
"7","00026CSR","23823","23823 2000","Condon Cr","MWCF",1.03,"Least disturbed",2000,0,"",0.903089986991944,2227.242,0.339381869112333,0.209499403340439,3.3142886609475,0.0220133821537293,123.9853486,44.08528001,13.1909059582729,1.42889927219073,"E",NA,"Attaining","Attaining","7",14,1.0152349953652,9.35702430383774,-0.112145008373258,-8.4539343168458,"Group 4",20,"Fair","Attaining","OLD","NEW","NEW"
"8","00028CSR","21791","21791 2000","Big Cr (Rock Cr Wilderness)","MWCF",1.09,"Least disturbed",2000,1,"",1,2300.54983,1.69311807045694,0.073280283842245,3.28712962071911,0.100210702919769,124.1060567,44.17026689,5.09901951359278,0.500179608697487,"R",NA,"Potential Concern","Potential Concern","9",14,1.0152349953652,9.35702430383774,-0.0152349953652018,-8.35702430383774,"Group 4",20,"Fair","Potential Concern","OLD","NEW","NEW"
"10","00036CSR","23821","23821 2000","Buck Creek (Deadwood)","MWCF",1.1,"Least disturbed",2000,0,"",1,2128.535,0.220152561703746,0.24897791066679,3.30535136944662,0.0174189960679312,123.6870096,44.19681741,25.4165300542777,1.47062890563334,"E",NA,"Potential Concern","Potential Concern","9",14,1.0152349953652,9.35702430383774,-0.0152349953652018,-8.35702430383774,"Group 4",20,"Fair","Potential Concern","OLD","NEW","NEW"
"14","00052CSR","23820","23820 2000","Crab Creek at RM 4.8 (Five Rivers, Alsea)","MWCF",1.04,"Least disturbed",2000,0,"",1,2152.455,1.44460573568862,0.134833230325465,3.31534047662729,0.172567090804738,123.8504347,44.26108329,18.3847763108502,1.42889927219073,"E",NA,"Attaining","Attaining","9",14,1.0152349953652,9.35702430383774,-0.0152349953652018,-8.35702430383774,"Group 4",20,"Fair","Attaining","OLD","OLD","OLD"
"24","01023CSR","25297","25297 2001","Siuslaw River at RM 76.2","MWCF",0.75,"Most disturbed",2001,0,"",1.32221929473392,1275.1961,2.69035222070717,0.0346410161513775,3.14519640611418,0.200580057385576,123.5063146,43.88239156,22.248595461287,1.47062890563334,"E",NA,"Impaired","Impaired","20",14,1.0152349953652,9.35702430383774,0.306984299368718,-8.03480500910382,"Group 4",20,"Poor","Impaired - Sediment Stressor","OLD","NEW","NEW"
"25","01024CSR","21791","21791 2001","Big Cr (Rock Cr Wilderness)","MWCF",1.03,"Least disturbed",2001,1,"",1.11394335230684,2300.54983,1.69311807045694,0.073280283842245,3.28712962071911,0.100210702919769,124.1060567,44.17026689,5.09901951359278,0.500179608697487,"R",NA,"Potential Concern","Potential Concern","12",14,1.0152349953652,9.35702430383774,0.0987083569416349,-8.2430809515309,"Group 4",20,"Good","Potential Concern","OLD","NEW","NEW"
"30","02001CSR","26818","26818 2002","Siletz River South Fork","MWCF",0.83,"Most disturbed",2002,0,"",1.34242268082221,2909.31716,1.4978452648571,0.0770713954719908,3.48925516836926,0.0722387345206047,123.633116,44.82276894,33.4514573673555,0.725253222200054,"E","Impaired","Impaired","Impaired","21",7,0.717561516606581,4.21869020300477,0.624861164215625,-2.87626752218256,"Group 3",9,"Poor","Impaired - Sediment Stressor","OLD","NEW","NEW"
"31","02002CSR","21790","21790 2002","Elkhorn Creek at RM 1.56","MWCF",0.95,"Least disturbed",2002,0,"",0.845098040014257,2124.81557,1.14686137385629,0.103923048454133,3.31973049433022,0.0571545095575216,123.9890525,44.50037836,9.89949493661167,1.34528292089677,"E","Attaining","Attaining","Attaining","6",14,1.0152349953652,9.35702430383774,-0.170136955350945,-8.51192626382348,"Group 4",20,"Fair","Attaining","OLD","NEW","NEW"
"33","02005CSR","26819","26819 2002","Five R (Lobster Cr)","MWCF",1.09,"Least disturbed",2002,0,"",1.04139268515823,2229.71025,1.91457008413434,0.0389871773792359,3.30081279411812,0.0505101499420428,123.8216858,44.2827552,14.9331845230681,1.42889927219073,"E","Attaining","Attaining","Potential Concern","10",14,1.0152349953652,9.35702430383774,0.0261576897930234,-8.31563161867952,"Group 4",20,"Good","Attaining","OLD","NEW","NEW"
"34","02006CSR","26822","26822 2002","Indian Cr","MWCF",0.77,"Most disturbed",2002,0,"",1.07918124604762,2243.75455,2.02920852277011,0.0622896460095897,3.31048089146268,0.14956163897162,123.8046501,44.09708946,15.1657508881031,1.5707963267949,"E","Impaired","Impaired","Impaired","11",14,1.0152349953652,9.35702430383774,0.0639462506824231,-8.27784305779012,"Group 4",20,"Good","Impaired - Unknown Stressor","OLD","NEW","NEW"
"47","02081EMAP","26964","26964 2002","Siuslaw R","MWCF",0.7,"Most disturbed",2002,0,"",1.47712125471966,1272.88863,2.64361538798864,0.0579655069847578,3.14395111642396,0.393679420913273,123.5022359,43.87548769,22.3383079036887,1.47062890563334,"E","Impaired","Impaired","Impaired","29",8,0.77466588484141,4.95204059846906,0.702455369878252,-3.4749193437494,"Group 2",11,"Poor","Impaired - Sediment Stressor","OLD","OLD","OLD"
"49","02085CSR","21791","21791 2002","Big Cr (Rock Cr Wilderness)","MWCF",0.98,"Least disturbed",2002,1,"",0.954242509439325,2300.54983,1.69311807045694,0.073280283842245,3.28712962071911,0.100210702919769,124.1060567,44.17026689,5.09901951359278,0.500179608697487,"R","Attaining","Potential Concern","Potential Concern","8",14,1.0152349953652,9.35702430383774,-0.0609924859258769,-8.40278179439842,"Group 4",20,"Fair","Potential Concern","OLD","NEW","NEW"
"54","02111CSR","26826","26826 2002","Ericson Creek","MWCF",0.92,"Least disturbed",2002,0,"",0.698970004336019,2521.37,1.17715831154406,0.183820564681975,3.43296929087441,0.16858788367694,123.9440961,44.96543266,19.3390796058137,0.835481873978228,"R","Attaining","Attaining","Attaining","4",14,1.0152349953652,9.35702430383774,-0.316264991029183,-8.65805429950172,"Group 4",20,"Fair","Attaining","OLD","OLD","OLD"
"57","02123CSRa","21790","21790 2002","Elkhorn Creek at RM 1.56","MWCF",1.02,"Least disturbed",2002,0,"",1.11394335230684,2124.81557,1.14686137385629,0.103923048454133,3.31973049433022,0.0571545095575216,123.9890525,44.50037836,9.89949493661167,1.34528292089677,"E","Attaining","Attaining","Attaining","12",14,1.0152349953652,9.35702430383774,0.0987083569416349,-8.2430809515309,"Group 4",20,"Good","Attaining","OLD","NEW","NEW"
"60","02138CSR","26822","26822 2002","Indian Cr","MWCF",0.78,"Most disturbed",2002,0,"",1.32221929473392,2243.75455,2.02920852277011,0.0622896460095897,3.31048089146268,0.14956163897162,123.8046501,44.09708946,15.1657508881031,1.5707963267949,"E","Impaired","Impaired","Impaired","20",14,1.0152349953652,9.35702430383774,0.306984299368718,-8.03480500910382,"Group 4",20,"Poor","Impaired - Sediment Stressor","OLD","OLD","OLD"
"61","02140CSR","26816","26816 2002","Siuslaw R","MWCF",0.85,"Most disturbed",2002,0,"",1.32221929473392,1283.66603,2.74302053169503,0.0430116263352131,3.17609125905568,0.305758834560604,123.5991888,43.90452238,19.8494332412792,1.47062890563334,"E","Impaired","Impaired","Impaired","20",8,0.77466588484141,4.95204059846906,0.547553409892509,-3.62982130373514,"Group 2",11,"Poor","Impaired - Sediment Stressor","OLD","OLD","OLD"
"64","03005CSR","29907","29907 2003","Bear Cr (Big Elk Creek)","MWCF",1.02,"Least disturbed",2003,0,"",1.20411998265592,2039.763,1.36823703582245,0.173176210837401,3.29314148345093,0.222767472268902,123.8006946,44.61879588,19.7484176581315,1.47062890563334,"E","Attaining","Attaining","Attaining","15",14,1.0152349953652,9.35702430383774,0.188884987290723,-8.15290432118182,"Group 4",20,"Fair","Attaining","OLD","NEW","NEW"
"67","03008CSR","21792","21792 2003","Montgomery Cr","MWCF",0.57,"Most disturbed",2003,0,"",1.51851393987789,2042.018,0.746862960501525,0.174269905606218,3.27021285489624,0.0565938339102534,123.9300588,44.58060593,9.05538513813742,1.28403977458335,"E","Impaired","Impaired","Impaired","32",14,1.0152349953652,9.35702430383774,0.503278944512686,-7.83851036395985,"Group 4",20,"Poor","Impaired - Sediment Stressor","OLD","NEW","NEW"
"75","03026EMAP","30403","30403 2003","Siuslaw River","MWCF",0.53,"Most disturbed",2003,0,"",1.61278385671974,1327.93905,2.96213980461935,0.0350713558335004,3.19451434188247,0.327580427349507,123.6410923,43.98696421,17.5499287747842,1.47062890563334,"E","Impaired","Impaired","Impaired","40",8,0.77466588484141,4.95204059846906,0.838117971878325,-3.33925674174933,"Group 2",11,"Poor","Impaired - Sediment Stressor","OLD","OLD","OLD"
"77","03036CSR","29895","29895 2003","Wild Cat Cr","MWCF",1.13,"Least disturbed",2003,0,"",1.44715803134222,1533.1287,0.513702247313398,0.071133676975115,3.19200959265367,0.00494614397011092,123.4860372,44.00463722,23.895606290697,1.36943840600457,"E","Attaining","Attaining","Attaining","26",14,1.0152349953652,9.35702430383774,0.431923035977017,-7.90986627249552,"Group 4",20,"Poor","Attaining","OLD","OLD","OLD"
"78","03037CSR","29906","29906 2003","Sweet Cr (Siuslaw)","MWCF",0.7,"Most disturbed",2003,0,"",1.44715803134222,2218.5848,1.95704204926722,0.0148323969741913,3.3142886609475,0.00847584654005308,123.8987084,43.99457863,4.47213595499958,1.32332926362445,"E","Impaired","Impaired","Impaired","27",14,1.0152349953652,9.35702430383774,0.431923035977017,-7.90986627249552,"Group 4",20,"Poor","Impaired - Sediment Stressor","OLD","OLD","OLD"
"79","03038CSR","23821","23821 2003","Buck Creek (Deadwood)","MWCF",1.01,"Least disturbed",2003,0,"",0.954242509439325,2128.535,0.220152561703746,0.24897791066679,3.30535136944662,0.0174189960679312,123.6870096,44.19681741,25.4165300542777,1.47062890563334,"E","Attaining","Potential Concern","Potential Concern","8",14,1.0152349953652,9.35702430383774,-0.0609924859258769,-8.40278179439842,"Group 4",20,"Fair","Potential Concern","OLD","NEW","NEW"
"80","03040CSR","29891","29891 2003","Fawn Creek","MWCF",1.13,"Least disturbed",2003,0,"",1.07918124604762,2380.594,0.310461768486202,0.200224873579683,3.30081279411812,0.0178053427946246,123.7024885,44.21134994,23.259406699226,1.47062890563334,"E","Attaining","Attaining","Attaining","11",14,1.0152349953652,9.35702430383774,0.0639462506824231,-8.27784305779012,"Group 4",20,"Good","Attaining","OLD","OLD","OLD"
"81","03045CSR","29900","29900 2003","Cummins Cr","MWCF",0.93,"Least disturbed",2003,1,"",0.845098040014257,2348.83763,1.58605175728531,0.134499070628759,3.30685374869301,0.2251343548213,124.0981044,44.26676349,9.05538513813742,0.500179608697487,"R","Attaining","Impaired","Attaining","6",14,1.0152349953652,9.35702430383774,-0.170136955350945,-8.51192626382348,"Group 4",20,"Fair","Impaired - Unknown Stressor","OLD","OLD","OLD"
"85","03069CSR","21792","21792 2003","Montgomery Cr","MWCF",0.96,"Least disturbed",2003,0,"",1.55630250076729,2042.018,0.746862960501525,0.174269905606218,3.27021285489624,0.0565938339102534,123.9300588,44.58060593,9.05538513813742,1.28403977458335,"E","Impaired","Impaired","Impaired","35",14,1.0152349953652,9.35702430383774,0.541067505402085,-7.80072180307045,"Group 4",20,"Poor","Impaired - Sediment Stressor","OLD","OLD","OLD"
"88","03088CSR","29907","29907 2003","Bear Cr (Big Elk Creek)","MWCF",0.82,"Most disturbed",2003,0,"",1.38021124171161,2039.763,1.36823703582245,0.173176210837401,3.29314148345093,0.222767472268902,123.8006946,44.61879588,19.7484176581315,1.47062890563334,"E","Attaining","Attaining","Attaining","23",14,1.0152349953652,9.35702430383774,0.364976246346404,-7.97681306212614,"Group 4",20,"Poor","Attaining","OLD","OLD","OLD"
"96","03109CSR","29898","29898 2003","Boulder Cr (Upper Siletz)","MWCF",0.86,"Moderately disturbed",2003,0,"",0.477121254719662,3778.19689,1.89247516739645,0.122351951353462,3.54900326202579,0.333187960370448,123.6954764,44.92172336,31.2089730686545,0.725253222200054,"R","Attaining","Attaining","Potential Concern","2",3,0.44053025593237,1.75759355853577,0.0365909987872928,-1.28047230381611,"Group 1",4,"Good","Attaining","OLD","OLD","OLD"
"97","03110CSR","21791","21791 2003","Big Cr (Rock Cr Wilderness)","MWCF",0.84,"Most disturbed",2003,1,"",0.954242509439325,2300.54983,1.69311807045694,0.073280283842245,3.28712962071911,0.100210702919769,124.1060567,44.17026689,5.09901951359278,0.500179608697487,"R","Impaired","Potential Concern","Potential Concern","8",14,1.0152349953652,9.35702430383774,-0.0609924859258769,-8.40278179439842,"Group 4",20,"Fair","Potential Concern","OLD","NEW","NEW"
"123","04069CSR","21790","21790 2004","Elkhorn Creek at RM 1.56","MWCF",1.11,"Least disturbed",2004,0,"",1.34242268082221,2124.81557,1.14686137385629,0.103923048454133,3.31973049433022,0.0571545095575216,123.9890525,44.50037836,9.89949493661167,1.34528292089677,"E","Attaining","Attaining","Attaining","21",14,1.0152349953652,9.35702430383774,0.327187685457004,-8.01460162301554,"Group 4",20,"Poor","Attaining","OLD","OLD","OLD"
"141","05016CSR","21791","21791 2005","Big Cr (Rock Cr Wilderness)","MWCF",0.84,"Most disturbed",2005,1,"",0.954242509439325,2300.54983,1.69311807045694,0.073280283842245,3.28712962071911,0.100210702919769,124.1060567,44.17026689,5.09901951359278,0.500179608697487,"R","Impaired","Potential Concern","Potential Concern","8",14,1.0152349953652,9.35702430383774,-0.0609924859258769,-8.40278179439842,"Group 4",20,"Fair","Potential Concern","OLD","NEW","NEW"
"143","06002DFW","33319","33319 2006","Rogers Cr","MWCF",1,"Least disturbed",2006,0,"",0.903089986991944,2327.702,0.374817974142649,0.160748250379281,3.31111784266251,0.0151126147210298,123.8862015,44.15886437,20.6639783197718,1.5707963267949,"E","Attaining","Attaining","Attaining","7",14,1.0152349953652,9.35702430383774,-0.112145008373258,-8.4539343168458,"Group 4",20,"Fair","Attaining","OLD","NEW","NEW"
"144","06003DFW","33320","33320 2006","Indian Cr","MWCF",0.79,"Most disturbed",2006,0,"",1.32221929473392,2287.75208,1.58201208585031,0.0515751878329105,3.3096301674259,0.0409739826170339,123.8317221,44.15138389,18.8148877222268,1.5707963267949,"E","Impaired","Impaired","Impaired","20",14,1.0152349953652,9.35702430383774,0.306984299368718,-8.03480500910382,"Group 4",20,"Poor","Impaired - Sediment Stressor","OLD","OLD","OLD"
"145","06004DFW","33345","33345 2006","Lobster Cr","MWCF",1.15,"Least disturbed",2006,0,"",1,2539.30446,0.914497063699403,0.128607931326182,3.29047981333067,0.0489470977964042,123.6391586,44.25650871,23.832750575626,1.42889927219073,"E","Attaining","Attaining","Attaining","9",14,1.0152349953652,9.35702430383774,-0.0152349953652018,-8.35702430383774,"Group 4",20,"Fair","Attaining","OLD","OLD","OLD"
"146","06005DFW","23821","23821 2006","Buck Creek (Deadwood)","MWCF",1.25,"Enriched",2006,0,"",0.954242509439325,2128.535,0.220152561703746,0.24897791066679,3.30535136944662,0.0174189960679312,123.6870096,44.19681741,25.4165300542777,1.47062890563334,"E","Potential Concern","Potential Concern","Potential Concern","8",14,1.0152349953652,9.35702430383774,-0.0609924859258769,-8.40278179439842,"Group 4",20,"Fair","Potential Concern","OLD","OLD","OLD"
"147","06006DFW","33323","33323 2006","Lamb Cr","MWCF",1.14,"Least disturbed",2006,0,"",1.07918124604762,1819.077,0.167057271085927,0.245621660282639,3.23603314711764,0.012120684711501,123.6006539,44.1411774,23.6220236220354,1.34528292089677,"E","Attaining","Attaining","Attaining","11",14,1.0152349953652,9.35702430383774,0.0639462506824231,-8.27784305779012,"Group 4",20,"Good","Attaining","OLD","OLD","OLD"
"148","06008DFW","33326","33326 2006","Panther Cr","MWCF",0.88,"Moderately disturbed",2006,0,"",1.43136376415899,1413.00923,1.25860328480218,0.0928977932999487,3.15381486434453,0.0599063050995017,123.3822984,43.94566215,28.5306852353742,1.47062890563334,"E","Attaining","Attaining","Potential Concern","26",14,1.0152349953652,9.35702430383774,0.416128768793786,-7.92566053967875,"Group 4",20,"Poor","Attaining","OLD","OLD","OLD"
"149","06009DFW","33332","33332 2006","Buck Cr, Trib B","MWCF",0.95,"Least disturbed",2006,0,"",1.30102999566398,1288.45,0.973052076462531,0.185499326144329,3.13353890837022,0.11024872869938,123.3921896,43.82306388,26.2488094968134,1.47062890563334,"E","Attaining","Attaining","Attaining","19",14,1.0152349953652,9.35702430383774,0.285795000298779,-8.05599430817376,"Group 4",20,"Fair","Attaining","OLD","OLD","OLD"
"150","06010DFW","33331","33331 2006","Jeans Cr","MWCF",0.85,"Most disturbed",2006,0,"",1.30102999566398,1292.435,0.682476314004767,0.236072022908264,3.14113609012074,0.0836945803523179,123.455315,43.86596133,23.3452350598575,1.47062890563334,"E","Impaired","Impaired","Impaired","19",14,1.0152349953652,9.35702430383774,0.285795000298779,-8.05599430817376,"Group 4",20,"Fair","Impaired - Unknown Stressor","OLD","OLD","OLD"
"151","06011DFW","33333","33333 2006","Simpson Cr","MWCF",0.76,"Most disturbed",2006,0,"",1.38021124171161,1282.656,0.502207185651745,0.262488094968134,3.12678057701201,0.0607322317160067,123.3602748,43.85448461,24.2280828791714,1.47062890563334,"E","Impaired","Impaired","Impaired","23",14,1.0152349953652,9.35702430383774,0.364976246346404,-7.97681306212614,"Group 4",20,"Poor","Impaired - Sediment Stressor","OLD","OLD","OLD"
"152","06013DFW","33328","33328 2006","Clay Cr","MWCF",1.15,"Least disturbed",2006,0,"",1.23044892137827,1340.01,0.941501991347391,0.170909332688417,3.16938049531195,0.0885187550805347,123.5662899,43.90295158,20.8086520466848,1.47062890563334,"E","Attaining","Attaining","Attaining","16",14,1.0152349953652,9.35702430383774,0.215213926013072,-8.12657538245947,"Group 4",20,"Fair","Attaining","OLD","OLD","OLD"
"153","06014DFW","33327","33327 2006","Esmond Cr, Trib A","MWCF",0.65,"Most disturbed",2006,0,"",1.36172783601759,1328.08,0.565332969071618,0.230759615184287,3.2464985807958,0.0578477812564762,123.6584642,43.88403549,21.7255609824004,1.47062890563334,"E","Impaired","Impaired","Impaired","22",14,1.0152349953652,9.35702430383774,0.346492840652391,-7.99529646782015,"Group 4",20,"Poor","Impaired - Sediment Stressor","OLD","OLD","OLD"
"154","06015DFW","33334","33334 2006","Cape Cr","MWCF",0.95,"Least disturbed",2006,0,"",1.04139268515823,2292.18331,1.75835845757278,0.101734949746879,3.31132995230379,0.199476364760199,124.1038833,44.13006146,6.2449979983984,0.500179608697487,"E","Attaining","Attaining","Attaining","10",14,1.0152349953652,9.35702430383774,0.0261576897930234,-8.31563161867952,"Group 4",20,"Good","Attaining","OLD","OLD","OLD"
"155","06016DFW","23823","23823 2006","Condon Cr","MWCF",0.98,"Least disturbed",2006,0,"",1.04139268515823,2227.242,0.339381869112333,0.209499403340439,3.3142886609475,0.0220133821537293,123.9853486,44.08528001,13.1909059582729,1.42889927219073,"E","Attaining","Attaining","Attaining","10",14,1.0152349953652,9.35702430383774,0.0261576897930234,-8.31563161867952,"Group 4",20,"Good","Attaining","OLD","OLD","OLD"
"156","06017DFW","33336","33336 2006","Mill Cr","MWCF",1.21,"Least disturbed",2006,0,"",1,2222.912,0.936028911909021,0.258708329977989,3.37438169805088,0.179178227772399,124.0697646,44.20729516,26.6833281282527,0.500179608697487,"R","Attaining","Attaining","Attaining","9",14,1.0152349953652,9.35702430383774,-0.0152349953652018,-8.35702430383774,"Group 4",20,"Fair","Attaining","OLD","OLD","OLD"
"157","06018DFW","33318","33318 2006","Hadsall Cr","MWCF",1.1,"Least disturbed",2006,0,"",1.17609125905568,2064.30021,1.52623017304857,0.091706052144883,3.30941722577814,0.105201818205635,123.8377815,44.00524289,8.88819441731559,1.32332926362445,"E","Attaining","Attaining","Attaining","14",14,1.0152349953652,9.35702430383774,0.16085626369048,-8.18093304478206,"Group 4",20,"Good","Attaining","OLD","OLD","OLD"
"158","06020DFW","33316","33316 2006","Divide Cr","MWCF",1.14,"Least disturbed",2006,0,"",1,2155.748,1.21640080658138,0.169911741795557,3.32118402730231,0.160257918666977,123.9477032,44.05273967,24.8997991959775,1.32332926362445,"E","Attaining","Attaining","Attaining","9",14,1.0152349953652,9.35702430383774,-0.0152349953652018,-8.35702430383774,"Group 4",20,"Fair","Attaining","OLD","OLD","OLD"
"159","06021DFW","33317","33317 2006","Divide Cr","MWCF",1.13,"Least disturbed",2006,0,"",1.04139268515823,2155.748,1.21640080658138,0.169911741795557,3.3163897510732,0.160257918666977,123.9399355,44.02355362,20.0997512422418,1.32332926362445,"E","Attaining","Attaining","Attaining","10",14,1.0152349953652,9.35702430383774,0.0261576897930234,-8.31563161867952,"Group 4",20,"Good","Attaining","OLD","OLD","OLD"
"160","06022DFW","17122","17122 2006","Spout Creek","MWCF",0.79,"Most disturbed",2006,0,"",1.17609125905568,1903.77713,1.2587361488795,0.0994484791236146,3.25285303097989,0.0680208155603473,123.6864953,44.55217087,17.464249196573,1.47062890563334,"E","Impaired","Potential Concern","Potential Concern","14",14,1.0152349953652,9.35702430383774,0.16085626369048,-8.18093304478206,"Group 4",20,"Good","Potential Concern","OLD","NEW","NEW"
"161","06023DFW","33354","33354 2006","Oglesby Cr","MWCF",1.01,"Least disturbed",2006,0,"",1.20411998265592,1714.87,0.103557436942102,0.223964282866711,3.23879856271392,0.00582678900894796,123.7270777,44.6377982,16.7928556237467,1.47062890563334,"E","Attaining","Attaining","Attaining","15",14,1.0152349953652,9.35702430383774,0.188884987290723,-8.15290432118182,"Group 4",20,"Fair","Attaining","OLD","OLD","OLD"
"162","06024DFW","33361","33361 2006","Siletz R, S Fk","MWCF",0.84,"Most disturbed",2006,0,"",1,3426.75422,2.0843257446617,0.10084641788383,3.49485002168009,0.347285585792435,123.7002646,44.8773556,27.4772633280682,0.725253222200054,"R","Impaired","Impaired","Impaired","9",3,0.44053025593237,1.75759355853577,0.55946974406763,-0.757593558535771,"Group 1",4,"Poor","Impaired - Sediment Stressor","OLD","OLD","OLD"
"163","06025DFW","33362","33362 2006","Little Boulder Cr","MWCF",1.09,"Least disturbed",2006,0,"",0.698970004336019,3983.70146,1.24797915506062,0.255890601624991,3.54468802230268,0.320879544422456,123.6657129,44.92737696,37.9473319220206,0.725253222200054,"R","Attaining","Attaining","Attaining","4",3,0.44053025593237,1.75759355853577,0.258439748403649,-1.05862355419975,"Group 1",4,"Poor","Attaining","OLD","OLD","OLD"
"164","06026DFW","33358","33358 2006","Buck Cr, E Fk","MWCF",1.07,"Least disturbed",2006,0,"",0.903089986991944,3117.191,0.73565158664151,0.327123829764816,3.47596158919242,0.168849439670713,123.7928626,44.83035806,27.2396769437525,0.775397496610753,"R","Attaining","Attaining","Attaining","7",14,1.0152349953652,9.35702430383774,-0.112145008373258,-8.4539343168458,"Group 4",20,"Fair","Attaining","OLD","OLD","OLD"
"165","06027DFW","33359","33359 2006","Fourth Of July Cr","MWCF",1.08,"Least disturbed",2006,0,"",1.25527250510331,3631.23,1.10824764281866,0.149197855212466,3.48742121135947,0.101523547527339,123.7071312,44.81627973,29.6479341607472,0.775397496610753,"E","Attaining","Attaining","Attaining","17",14,1.0152349953652,9.35702430383774,0.240037509738104,-8.10175179873444,"Group 4",20,"Fair","Attaining","OLD","OLD","OLD"
"166","06028DFW","33357","33357 2006","Mill Cr, N Fk","MWCF",1.04,"Least disturbed",2006,0,"",1,3125.27226,1.18961073160776,0.243721152139079,3.32056168019524,0.26945989774472,123.7584755,44.76677713,16.7032930884901,0.775397496610753,"E","Attaining","Attaining","Attaining","9",8,0.77466588484141,4.95204059846906,0.22533411515859,-3.95204059846906,"Group 2",11,"Fair","Attaining","OLD","NEW","NEW"
"167","06029DFW","33355","33355 2006","Stemple Cr","MWCF",0.92,"Least disturbed",2006,0,"",1.38021124171161,-9999,NA,NA,3.30535136944662,NA,123.9671218,44.83844207,5.47722557505166,0.835481873978228,"E","Attaining","Attaining",NA,"23",25,1.24286459372765,16.4930119865445,0.137346647983959,-15.1128007448329,"Group 5",36,"Good","Attaining","NEW","NEW","NEW"
"168","06030DFW","33353","33353 2006","Klamath Cr","MWCF",1.15,"Least disturbed",2006,0,"",1.32221929473392,2025.685,0.840528259414601,0.176493625947228,3.29269900304393,0.0735781953804112,123.8466761,44.68717178,11.7473401244707,1.47062890563334,"E","Attaining","Attaining","Attaining","20",14,1.0152349953652,9.35702430383774,0.306984299368718,-8.03480500910382,"Group 4",20,"Poor","Attaining","OLD","OLD","OLD"
"169","06031DFW","33350","33350 2006","Olalla Cr, Trib A","MWCF",1.08,"Least disturbed",2006,0,"",1.39794000867204,1939.907,0.473656275411892,0.239499478078763,3.27207378750001,0.0466327034770747,123.913705,44.65104259,6.2449979983984,1.28403977458335,"E","Attaining","Attaining","Attaining","24",14,1.0152349953652,9.35702430383774,0.382705013306836,-7.9590842951657,"Group 4",20,"Poor","Attaining","OLD","OLD","OLD"
"170","06032DFW","33366","33366 2006","Bear Cr","MWCF",1.02,"Least disturbed",2006,0,"",0.903089986991944,2760.86878,1.25806710658019,0.124819870213039,3.40140054078154,0.102663620549651,123.8914743,44.99066071,14.9331845230681,0.825440953414278,"R","Attaining","Attaining","Attaining","7",14,1.0152349953652,9.35702430383774,-0.112145008373258,-8.4539343168458,"Group 4",20,"Fair","Attaining","OLD","OLD","OLD"
"171","06033DFW","33337","33337 2006","Cummins Cr","MWCF",1.06,"Least disturbed",2006,1,"",0.903089986991944,2348.83763,1.58605175728531,0.134499070628759,3.38524868240322,0.2251343548213,124.0623456,44.26682992,13.7840487520902,0.500179608697487,"R","Attaining","Attaining","Attaining","7",14,1.0152349953652,9.35702430383774,-0.112145008373258,-8.4539343168458,"Group 4",20,"Fair","Attaining","OLD","OLD","OLD"
"172","06034DFW","33343","33343 2006","Flynn Cr","MWCF",1.04,"Least disturbed",2006,0,"",1.32221929473392,2151.987,1.08311043111515,0.142618371888057,3.36040405472994,0.0884756911660202,123.8569804,44.54666746,26.1916017074176,1.42889927219073,"E","Attaining","Attaining","Attaining","20",14,1.0152349953652,9.35702430383774,0.306984299368718,-8.03480500910382,"Group 4",20,"Poor","Attaining","OLD","OLD","OLD"
"173","06035DFW","26819","26819 2006","Five R (Lobster Cr)","MWCF",0.89,"Moderately disturbed",2006,0,"",1.20411998265592,2229.71025,1.91457008413434,0.0389871773792359,3.30081279411812,0.0505101499420428,123.8216858,44.2827552,14.9331845230681,1.42889927219073,"E","Attaining","Attaining","Potential Concern","15",14,1.0152349953652,9.35702430383774,0.188884987290723,-8.15290432118182,"Group 4",20,"Fair","Attaining","OLD","OLD","OLD"
"174","06036DFW","33348","33348 2006","Alsea R, S Fk","MWCF",0.89,"Moderately disturbed",2006,0,"",1.04139268515823,2062.04395,2.11208876908179,0.0974679434480896,3.25309558584903,0.346399410177105,123.5628981,44.33758524,21.7255609824004,0.886077123792614,"R","Attaining","Attaining","Potential Concern","10",8,0.77466588484141,4.95204059846906,0.266726800316815,-3.91064791331084,"Group 2",11,"Good","Attaining","OLD","OLD","OLD"
"175","06037DFW","33325","33325 2006","Wolf Cr","MWCF",0.94,"Least disturbed",2006,0,"",1.27875360095283,1415.18554,2.18000974180031,0.0478539444560216,3.17201880942456,0.128503726273874,123.5258468,43.94045499,23.685438564654,1.47062890563334,"E","Attaining","Impaired","Attaining","18",14,1.0152349953652,9.35702430383774,0.263518605587627,-8.07827070288491,"Group 4",20,"Fair","Impaired - Unknown Stressor","OLD","OLD","OLD"
"176","06038DFWa","21791","21791 2006","Big Cr (Rock Cr Wilderness)","MWCF",0.9,"Moderately disturbed",2006,1,"",0.903089986991944,2300.54983,1.69311807045694,0.073280283842245,3.28712962071911,0.100210702919769,124.1060567,44.17026689,5.09901951359278,0.500179608697487,"R","Attaining","Potential Concern","Potential Concern","7",14,1.0152349953652,9.35702430383774,-0.112145008373258,-8.4539343168458,"Group 4",20,"Fair","Potential Concern","OLD","NEW","NEW"
"177","06039DFW","33360","33360 2006","Siletz R","MWCF",1.15,"Least disturbed",2006,0,"",0.903089986991944,3798.4285,2.58655277351233,0.0932201694913713,3.46716396596909,0.638028091364639,123.7588435,44.84671329,23.832750575626,0.775397496610753,"R","Attaining","Attaining","Attaining","8",8,0.77466588484141,4.95204059846906,0.128424102150533,-4.04895061147712,"Group 2",11,"Good","Attaining","OLD","OLD","OLD"
"178","06040DFW","33356","33356 2006","S Roy Cr","MWCF",0.91,"Moderately disturbed",2006,0,"",1.49136169383427,2134.37,0.983076644879788,0.13251415018782,3.29512708525219,0.0611994133777736,123.9708682,44.78480026,9.89949493661167,0.835481873978228,"E","Attaining","Attaining","Potential Concern","30",14,1.0152349953652,9.35702430383774,0.476126698469071,-7.86566261000347,"Group 4",20,"Poor","Attaining","OLD","OLD","OLD"
"179","06041DFW","33363","33363 2006","Drift Cr","MWCF",0.82,"Most disturbed",2006,0,"",1,3142.59832,2.21252337337858,0.0840238061504,3.36642295722597,0.331348337643654,123.953728,44.89200812,10.8627804912002,0.835481873978228,"R","Impaired","Impaired","Impaired","9",8,0.77466588484141,4.95204059846906,0.22533411515859,-3.95204059846906,"Group 2",11,"Fair","Impaired - Unknown Stressor","OLD","OLD","OLD"
"180","06042DFW","33339","33339 2006","Yachats R, N Fk","MWCF",0.96,"Least disturbed",2006,0,"",0.903089986991944,2267.99328,1.11080646677721,0.10959014554238,3.34478512263266,0.0580448412586543,123.9779412,44.33487238,17.6635217326557,0.927295218001612,"E","Attaining","Attaining","Attaining","7",14,1.0152349953652,9.35702430383774,-0.112145008373258,-8.4539343168458,"Group 4",20,"Fair","Attaining","OLD","OLD","OLD"
"181","06043DFW","33342","33342 2006","Trout Cr, E Fk","MWCF",1.19,"Least disturbed",2006,1,"",0.903089986991944,2277.961,0.189279712637177,0.295414962383424,3.35102285258412,0.0202250212713604,123.9456922,44.4760315,17,1.42889927219073,"E","Attaining","Attaining","Attaining","7",14,1.0152349953652,9.35702430383774,-0.112145008373258,-8.4539343168458,"Group 4",20,"Fair","Attaining","OLD","OLD","OLD"
"183","06045DFW","33344","33344 2006","Bear Cr","MWCF",1.2,"Least disturbed",2006,0,"",0.954242509439325,2061.604,0.292143051454897,0.250059992801727,3.33645973384853,0.025304599253539,123.7792957,44.35634272,27.712812921102,1.42889927219073,"E","Attaining","Attaining","Attaining","8",14,1.0152349953652,9.35702430383774,-0.0609924859258769,-8.40278179439842,"Group 4",20,"Fair","Attaining","OLD","OLD","OLD"
"185","06047DFW","33341","33341 2006","Grass Cr","MWCF",1.08,"Least disturbed",2006,0,"",1.04139268515823,2293.328,0.310733660567585,0.168997041394221,3.34380233316165,0.0127742373183834,123.9304989,44.28023512,19.5192212959431,0.927295218001612,"E","Attaining","Attaining","Attaining","10",14,1.0152349953652,9.35702430383774,0.0261576897930234,-8.31563161867952,"Group 4",20,"Good","Attaining","OLD","OLD","OLD"
"201","06066DFW","33364","33364 2006","Crowley Cr","MWCF",1.19,"Least disturbed",2006,0,"",1.11394335230684,2016.313,0.912242787353158,0.334140688932072,3.4111144185509,0.255410985323757,123.9855873,45.04871593,12.1655250605964,0.825440953414278,"E","Attaining","Attaining","Attaining","12",8,0.77466588484141,4.95204059846906,0.339277467465427,-3.83809724616223,"Group 2",11,"Poor","Attaining","OLD","OLD","OLD"
"204","06070DFW","33417","33417 2006","Fivemile Cr","MWCF",0.87,"Moderately disturbed",2006,0,"",1.41497334797082,2107.49479,1.46417720214897,0.0606630035524124,3.31910605930978,0.042763720002141,124.0249086,43.83928508,5.09901951359278,1.3030329996377,"E","Attaining","Potential Concern","Impaired","25",14,1.0152349953652,9.35702430383774,0.399738352605616,-7.94205095586692,"Group 4",20,"Poor","Potential Concern","OLD","NEW","NEW"
"205","06071DFW","33418","33418 2006","Bell Cr","MWCF",0.56,"Most disturbed",2006,0,"",1.49136169383427,2115.124,1.17071601968897,0.158335087709579,3.32139127831169,0.129159372703248,124.0127305,43.84129345,6.78232998312527,1.3030329996377,"E","Impaired","Potential Concern","Impaired","30",14,1.0152349953652,9.35702430383774,0.476126698469071,-7.86566261000347,"Group 4",20,"Poor","Potential Concern","OLD","OLD","OLD"
"206","06072DFW","33324","33324 2006","Wolf Cr","MWCF",0.94,"Least disturbed",2006,0,"",1.36172783601759,1422.82699,2.27172391304293,0.0486826457785523,3.17609125905568,0.158573529644932,123.5392325,43.96179941,21.5870331449229,1.47062890563334,"E","Attaining","Attaining","Attaining","22",14,1.0152349953652,9.35702430383774,0.346492840652391,-7.99529646782015,"Group 4",20,"Poor","Attaining","OLD","OLD","OLD"
"207","06073DFW","33419","33419 2006","Billy Moore Cr","MWCF",1.17,"Least disturbed",2006,0,"",1.17609125905568,2119.538,0.73867117858285,0.224276614920058,3.33021078457153,0.0882334256976278,123.9709984,43.88744418,17.0880074906351,1.3030329996377,"E","Attaining","Attaining","Attaining","14",14,1.0152349953652,9.35702430383774,0.16085626369048,-8.18093304478206,"Group 4",20,"Good","Attaining","OLD","OLD","OLD"
"273","07001OPR","11850","11850 2007","Rock Creek at RM 1.5 (Alsea)","MWCF",1.22,"Least disturbed",2007,1,"Yes",0.602059991327962,2221.245,1.46126180630305,0.23134389985474,3.33885474625232,0.396984342217301,124.0911868,44.18723434,15.5884572681199,0.500179608697487,"R","Attaining","Attaining","Attaining","3",3,0.44053025593237,1.75759355853577,0.161529735395593,-1.15553356720781,"Group 1",4,"Good","Attaining","OLD","NEW","NEW"
"275","07004DFW","17090","17090 2007","NF Salmonberry Creek at RM 0.80 (Alsea)","MWCF",1.1,"Least disturbed",2007,0,"",1.17609125905568,2139.565,0.34954559969803,0.155016128193166,3.20085049809108,0.0127150193932069,123.6836497,44.34031324,15.0332963783729,1.20193334256827,"E","Attaining","Attaining","Attaining","14",14,1.0152349953652,9.35702430383774,0.16085626369048,-8.18093304478206,"Group 4",20,"Good","Attaining","OLD","OLD","OLD"
"277","07005DFW","17122","17122 2007","Spout Creek","MWCF",1.03,"Least disturbed",2007,0,"",1.17609125905568,1903.77713,1.2587361488795,0.0994484791236146,3.25285303097989,0.0680208155603473,123.6864953,44.55217087,17.464249196573,1.47062890563334,"E","Attaining","Potential Concern","Potential Concern","14",14,1.0152349953652,9.35702430383774,0.16085626369048,-8.18093304478206,"Group 4",20,"Good","Potential Concern","OLD","OLD","OLD"
"280","07007DFW","21791","21791 2007","Big Cr (Rock Cr Wilderness)","MWCF",0.95,"Least disturbed",2007,1,"",0.954242509439325,2300.54983,1.69311807045694,0.073280283842245,3.28712962071911,0.100210702919769,124.1060567,44.17026689,5.09901951359278,0.500179608697487,"R","Attaining","Potential Concern","Potential Concern","8",14,1.0152349953652,9.35702430383774,-0.0609924859258769,-8.40278179439842,"Group 4",20,"Fair","Potential Concern","OLD","OLD","OLD"
"283","07009OPR","12521","12521 2007","Trib to Bernhardt Creek at RM 3.0","MWCF",1.03,"Least disturbed",2007,0,"Yes",0.903089986991944,2221.48,0.741206768875058,0.243166609549913,3.33264041038746,0.102679835955122,123.9711539,43.96302222,16.4012194668567,1.32332926362445,"E","Attaining","Attaining",NA,"7",14,1.0152349953652,9.35702430383774,-0.112145008373258,-8.4539343168458,"Group 4",20,"Fair","Attaining","NEW","NEW","NEW"
"290","07013OPR","21791","21791 2007","Big Cr (Rock Cr Wilderness)","MWCF",0.96,"Least disturbed",2007,1,"Yes",0.845098040014257,2300.54983,1.69311807045694,0.073280283842245,3.28712962071911,0.100210702919769,124.1060567,44.17026689,5.09901951359278,0.500179608697487,"R","Attaining","Potential Concern","Potential Concern","6",14,1.0152349953652,9.35702430383774,-0.170136955350945,-8.51192626382348,"Group 4",20,"Fair","Potential Concern","OLD","NEW","NEW"
"291","07014DFW","25297","25297 2007","Siuslaw River at RM 76.2","MWCF",0.79,"Most disturbed",2007,0,"",1.38021124171161,1275.1961,2.69035222070717,0.0346410161513775,3.14519640611418,0.200580057385576,123.5063146,43.88239156,22.248595461287,1.47062890563334,"E","Impaired","Impaired","Impaired","23",14,1.0152349953652,9.35702430383774,0.364976246346404,-7.97681306212614,"Group 4",20,"Poor","Impaired - Sediment Stressor","OLD","OLD","OLD"
"292","07014OPR","21842","21842 2007","Flynn Creek at RM 1.71 (Alsea)","MWCF",0.98,"Least disturbed",2007,1,"Yes",1.04139268515823,2151.987,1.08311043111515,0.142618371888057,3.34360550810417,0.0884756911660202,123.853562,44.53918973,23.7486841740758,1.42889927219073,"E","Attaining","Attaining","Impaired","10",14,1.0152349953652,9.35702430383774,0.0261576897930234,-8.31563161867952,"Group 4",20,"Good","Attaining","OLD","NEW","NEW"
"294","07015OPR","21842","21842 2007","Flynn Creek at RM 1.71 (Alsea)","MWCF",1.15,"Least disturbed",2007,1,"Yes",1.07918124604762,2151.987,1.08311043111515,0.142618371888057,3.34360550810417,0.0884756911660202,123.853562,44.53918973,23.7486841740758,1.42889927219073,"E","Attaining","Attaining","Impaired","11",14,1.0152349953652,9.35702430383774,0.0639462506824231,-8.27784305779012,"Group 4",20,"Good","Attaining","OLD","NEW","NEW"
"297","07018DFW","28046","28046 2007","North Fork Green River","MWCF",1,"Least disturbed",2007,0,"",1.41497334797082,2240.36,1.2800303767106,0.156332977966902,3.32221929473392,0.158750521867278,123.8553855,44.2336502,21.4242852856285,1.42889927219073,"E","Attaining","Attaining","Attaining","25",14,1.0152349953652,9.35702430383774,0.399738352605616,-7.94205095586692,"Group 4",20,"Poor","Attaining","OLD","OLD","OLD"
"300","07021DFW","32575","32575 2007","Tenmile Creek at River Mile 4.82","MWCF",0.88,"Moderately disturbed",2007,0,"",0.698970004336019,2393.70235,1.86019829103322,0.0941806774237688,3.37821614974988,0.213251561023412,124.0448606,44.2206359,13.6747943311773,0.500179608697487,"R","Attaining","Attaining","Potential Concern","4",14,1.0152349953652,9.35702430383774,-0.316264991029183,-8.65805429950172,"Group 4",20,"Fair","Attaining","OLD","OLD","OLD"
"302","07023DFW","33319","33319 2007","Rogers Cr","MWCF",0.98,"Least disturbed",2007,0,"",0.778151250383644,2327.702,0.374817974142649,0.160748250379281,3.31111784266251,0.0151126147210298,123.8862015,44.15886437,20.6639783197718,1.5707963267949,"E","Attaining","Attaining","Attaining","5",14,1.0152349953652,9.35702430383774,-0.237083744981558,-8.5788730534541,"Group 4",20,"Fair","Attaining","OLD","OLD","OLD"
"303","07024DFW","33357","33357 2007","Mill Cr, N Fk","MWCF",1.04,"Least disturbed",2007,0,"",1,3125.27226,1.18961073160776,0.243721152139079,3.32056168019524,0.26945989774472,123.7584755,44.76677713,16.7032930884901,0.775397496610753,"E","Attaining","Attaining","Attaining","9",8,0.77466588484141,4.95204059846906,0.22533411515859,-3.95204059846906,"Group 2",11,"Fair","Attaining","OLD","OLD","OLD"
"304","07024OPR","29900","29900 2007","Cummins Cr","MWCF",0.77,"Most disturbed",2007,1,"Yes",0.778151250383644,2348.83763,1.58605175728531,0.134499070628759,3.30685374869301,0.2251343548213,124.0981044,44.26676349,9.05538513813742,0.500179608697487,"R","Impaired","Impaired","Attaining","6",14,1.0152349953652,9.35702430383774,-0.237083744981558,-8.5788730534541,"Group 4",20,"Fair","Impaired - Unknown Stressor","OLD","NEW","NEW"
"305","07025DFW","33417","33417 2007","Fivemile Cr","MWCF",0.41,"Most disturbed",2007,0,"",1.51851393987789,2107.49479,1.46417720214897,0.0606630035524124,3.31910605930978,0.042763720002141,124.0249086,43.83928508,5.09901951359278,1.3030329996377,"E","Impaired","Potential Concern","Impaired","32",14,1.0152349953652,9.35702430383774,0.503278944512686,-7.83851036395985,"Group 4",20,"Poor","Potential Concern","OLD","OLD","OLD"
"308","07026OPR","32594","32594 2006","Tenmile Creek","MWCF",1.03,"Least disturbed",2006,0,"Yes",0.698970004336019,2409.62281,1.62419894266127,0.104450945424156,3.38363586836188,0.160862448398567,124.0083935,44.21255741,18.4661853126194,0.500179608697487,"R","Attaining","Impaired","Attaining","5",14,1.0152349953652,9.35702430383774,-0.316264991029183,-8.65805429950172,"Group 4",20,"Fair","Impaired - Unknown Stressor","OLD","NEW","NEW"
"309","07027OPR","34467","34467 2007","Trout Creek","MWCF",1.08,"Least disturbed",2007,1,"Yes",0.778151250383644,2258.28854,1.40413452130798,0.106583300755794,3.33805787541976,0.106095603892503,123.9533483,44.47296032,9.89949493661167,1.42889927219073,"E","Attaining","Attaining",NA,"5",14,1.0152349953652,9.35702430383774,-0.237083744981558,-8.5788730534541,"Group 4",20,"Fair","Attaining","NEW","NEW","NEW"
"313","07033OPR","34521","34521 2007","Needle Branch","MWCF",1.12,"Least disturbed",2007,0,"Yes",1.14612803567824,2350.469,0.434999791350173,0.19565275362233,3.35698140099313,0.0277347788719132,123.8551403,44.51024464,20.976176963403,1.42889927219073,"E","Attaining","Impaired",NA,"13",14,1.0152349953652,9.35702430383774,0.130893040313036,-8.2108962681595,"Group 4",20,"Good","Impaired - Unknown Stressor","NEW","NEW","NEW"
"321","07038OPR","32594","32594 2007","Tenmile Creek","MWCF",0.69,"Most disturbed",2007,0,"Yes",0.602059991327962,2409.62281,1.62419894266127,0.104450945424156,3.38363586836188,0.160862448398567,124.0083935,44.21255741,18.4661853126194,0.500179608697487,"R","Impaired","Impaired","Attaining","3",14,1.0152349953652,9.35702430383774,-0.413175004037239,-8.75496431250978,"Group 4",20,"Fair","Impaired - Unknown Stressor","OLD","NEW","NEW"
"341","07058DFW","34639","34639 2007","Cedar Cr at Mouth (Five Rivers)","MWCF",0.94,"Least disturbed",2007,0,"",1.25527250510331,2280.49243,1.63457772063076,0.0687749954561976,3.27783833300205,0.0788844339309489,123.7802792,44.26980044,16.3095064303001,1.42889927219073,"E","Attaining","Attaining","Attaining","17",14,1.0152349953652,9.35702430383774,0.240037509738104,-8.10175179873444,"Group 4",20,"Fair","Attaining","OLD","OLD","OLD"
"342","07059DFW","34640","34640 2007","Cascade Cr NF at Mouth","MWCF",1.04,"Least disturbed",2007,0,"",1.04139268515823,2243.09329,1.14172406053669,0.0953414914924242,3.32407657973949,0.0480088619314684,123.8683309,44.32067725,17.6635217326557,1.42889927219073,"E","Attaining","Attaining","Attaining","10",14,1.0152349953652,9.35702430383774,0.0261576897930234,-8.31563161867952,"Group 4",20,"Good","Attaining","OLD","OLD","OLD"
"343","07060DFW","34641","34641 2007","Benner Cr at Mouth (Alsea R)","MWCF",1.29,"Enriched",2007,0,"",1,2254.03,0.207968104690223,0.265160328857844,3.24278980947868,0.0183622554169138,123.7282971,44.35195289,15.0332963783729,1.20193334256827,"E","Potential Concern","Potential Concern","Potential Concern","9",14,1.0152349953652,9.35702430383774,-0.0152349953652018,-8.35702430383774,"Group 4",20,"Fair","Potential Concern","OLD","OLD","OLD"
"344","07061DFW","34642","34642 2007","Fish Cr at RM 4.07","MWCF",1.14,"Least disturbed",2007,0,"",1,1940.245,0.227979207195692,0.290963915288477,3.21404867941194,0.0246686559436382,123.5168719,44.15789177,27.1661554144122,1.34528292089677,"E","Attaining","Attaining","Attaining","9",14,1.0152349953652,9.35702430383774,-0.0152349953652018,-8.35702430383774,"Group 4",20,"Fair","Attaining","OLD","OLD","OLD"
"345","07062DFW","34643","34643 2007","Raleigh Cr at RM 0.14 (Deadwood Cr)","MWCF",0.91,"Moderately disturbed",2007,0,"",1.07918124604762,2036.73,0.190972859727847,0.241929741867345,3.30513631894364,0.0138166695067809,123.7046041,44.13836812,18.9208879284245,1.47062890563334,"E","Attaining","Attaining","Potential Concern","11",14,1.0152349953652,9.35702430383774,0.0639462506824231,-8.27784305779012,"Group 4",20,"Good","Attaining","OLD","OLD","OLD"
"346","07063DFW","34644","34644 2007","Crooked Cr at RM 1.18 (NF Alsea R)","MWCF",1.04,"Least disturbed",2007,0,"",0.698970004336019,2181.47086,0.974286427537166,0.124498995979887,3.22942584792069,0.0533048344486056,123.5416946,44.42178109,20.976176963403,0.886077123792614,"E","Attaining","Potential Concern","Attaining","4",14,1.0152349953652,9.35702430383774,-0.316264991029183,-8.65805429950172,"Group 4",20,"Fair","Potential Concern","OLD","OLD","OLD"
"347","07064DFW","34645","34645 2007","Russell Cr at RM 0.20","MWCF",1.05,"Least disturbed",2007,0,"",1.30102999566398,1283.78192,1.07644127052732,0.101143462467922,3.1300119496719,0.0460102405760705,123.3602292,43.85458226,23.6220236220354,1.47062890563334,"E","Attaining","Impaired","Attaining","19",14,1.0152349953652,9.35702430383774,0.285795000298779,-8.05599430817376,"Group 4",20,"Fair","Impaired - Unknown Stressor","OLD","OLD","OLD"
"348","07065DFW","34646","34646 2007","Clay Cr at RM 0.16 (Siuslaw R)","MWCF",1.1,"Least disturbed",2007,0,"",1.04139268515823,1340.01,0.941501991347391,0.170909332688417,3.16938049531195,0.0885187550805347,123.5654843,43.9014647,20.7364413533277,1.47062890563334,"E","Attaining","Attaining","Attaining","10",14,1.0152349953652,9.35702430383774,0.0261576897930234,-8.31563161867952,"Group 4",20,"Good","Attaining","OLD","OLD","OLD"
"349","07067DFW","34648","34648 2007","Hawley Cr at RM 3.46","MWCF",0.96,"Least disturbed",2007,0,"",1.04139268515823,1282.98039,1.12854045609937,0.145086181285469,3.11660774398825,0.101043520421593,123.1736545,43.86165914,28.5306852353742,1.47062890563334,"E","Attaining","Attaining","Attaining","10",14,1.0152349953652,9.35702430383774,0.0261576897930234,-8.31563161867952,"Group 4",20,"Good","Attaining","OLD","OLD","OLD"
"350","07068DFW","34649","34649 2007","Porter Cr at RM 3.15","MWCF",0.91,"Moderately disturbed",2007,0,"",1.04139268515823,2223.682,0.351222148790302,0.179053064760143,3.32469391386177,0.0169981190937461,123.9478723,44.13845754,16.6132477258361,1.42889927219073,"E","Attaining","Attaining","Potential Concern","10",14,1.0152349953652,9.35702430383774,0.0261576897930234,-8.31563161867952,"Group 4",20,"Good","Attaining","OLD","OLD","OLD"
"351","07069DFW","34650","34650 2007","Old Man Cr at Mouth","MWCF",0.93,"Least disturbed",2007,0,"",1.04139268515823,2052.561,0.0949844316866798,0.356987394735444,3.31680875205302,0.0133240602224043,123.8033665,44.05404539,13.076696830622,1.32332926362445,"E","Attaining","Attaining","Attaining","11",14,1.0152349953652,9.35702430383774,0.0261576897930234,-8.31563161867952,"Group 4",20,"Good","Attaining","OLD","OLD","OLD"
"352","07070DFW","34651","34651 2007","Hula Cr at Mouth","MWCF",1.05,"Least disturbed",2007,0,"",1.14612803567824,2139.325,0.238868725802414,0.229499455337044,3.30276370847298,0.0164574581674678,123.7230226,44.09687506,16.6132477258361,1.34528292089677,"E","Attaining","Attaining","Attaining","13",14,1.0152349953652,9.35702430383774,0.130893040313036,-8.2108962681595,"Group 4",20,"Good","Attaining","OLD","OLD","OLD"
"353","07071DFW","34652","34652 2007","Little Elk Cr at RM 8.18","MWCF",0.91,"Moderately disturbed",2007,0,"",1.23044892137827,1808.375,0.235311245361685,0.198620240660412,3.26458172923808,0.0121494295810181,123.6571041,44.62063103,24.4335834457412,1.47062890563334,"E","Attaining","Attaining","Potential Concern","16",14,1.0152349953652,9.35702430383774,0.215213926013072,-8.12657538245947,"Group 4",20,"Fair","Attaining","OLD","OLD","OLD"
"354","07072DFW","34653","34653 2007","Buttermilk Cr at RM 1.40","MWCF",1.19,"Least disturbed",2007,0,"",1.14612803567824,1721.37,0.248554390341338,0.180055546984812,3.21774707326279,0.0107409127044876,123.6999323,44.65141235,16.7032930884901,1.47062890563334,"E","Attaining","Attaining","Attaining","13",14,1.0152349953652,9.35702430383774,0.130893040313036,-8.2108962681595,"Group 4",20,"Good","Attaining","OLD","OLD","OLD"
"355","07073DFW","34654","34654 2007","Sam Cr at RM 6.53","MWCF",1.13,"Least disturbed",2007,0,"",1.34242268082221,2106.68942,1.26917565132068,0.0886002257333467,3.26974637313077,0.0561600631884284,123.7477575,44.7129022,19.0787840283389,0.835481873978228,"E","Attaining","Attaining","Attaining","21",14,1.0152349953652,9.35702430383774,0.327187685457004,-8.01460162301554,"Group 4",20,"Poor","Attaining","OLD","OLD","OLD"
"357","07075DFW","34656","34656 2007","Reed Cr at RM 1.1","MWCF",1.01,"Least disturbed",2007,0,"",1.07918124604762,2290.259,0.885080647567336,0.180831413200251,3.3236645356081,0.0857449072948617,123.9425068,44.85127455,9.89949493661167,0.835481873978228,"E","Attaining","Attaining","Attaining","11",14,1.0152349953652,9.35702430383774,0.0639462506824231,-8.27784305779012,"Group 4",20,"Good","Attaining","OLD","OLD","OLD"
"358","07076DFW","34657","34657 2007","Rock Cr Trib (RM 3.84) near mouth","MWCF",1.15,"Least disturbed",2007,0,"",1,2305.8,0.429157745472098,0.242260190704127,3.37894269861344,0.0409858849064533,123.9642542,44.98540275,13.3041346956501,0.825440953414278,"R","Attaining","Attaining","Attaining","9",14,1.0152349953652,9.35702430383774,-0.0152349953652018,-8.35702430383774,"Group 4",20,"Fair","Attaining","OLD","OLD","OLD"
"359","07077DFW","34658","34658 2007","Cummins Cr at RM 1.94","MWCF",0.77,"Most disturbed",2007,1,"",0.778151250383644,2348.83763,1.58605175728531,0.134499070628759,3.35983548233989,0.2251343548213,124.0725752,44.26947091,12.2882057274445,0.500179608697487,"R","Impaired","Potential Concern","Impaired","5",14,1.0152349953652,9.35702430383774,-0.237083744981558,-8.5788730534541,"Group 4",20,"Fair","Potential Concern","OLD","OLD","OLD"
"360","07078DFW","34659","34659 2007","Beaver Cr NF at RM 3.06","MWCF",0.85,"Most disturbed",2007,0,"",1.20411998265592,2240.89449,1.66809075711484,0.0781024967590666,3.30749603791321,0.106519596681959,123.9879399,44.52327556,8.12403840463596,1.34528292089677,"E","Impaired","Impaired","Impaired","15",14,1.0152349953652,9.35702430383774,0.188884987290723,-8.15290432118182,"Group 4",20,"Fair","Impaired - Unknown Stressor","OLD","OLD","OLD"
"361","07079DFW","34660","34660 2007","Oliver Cr at RM 0.63","MWCF",0.8,"Most disturbed",2007,0,"",1.70757017609794,1905.093,0.977704861648842,0.166733320005331,3.2817149700273,0.0921198652716523,124.0372066,44.47247798,6.2449979983984,1.34528292089677,"E","Impaired","Impaired","Impaired","50",14,1.0152349953652,9.35702430383774,0.692335180732734,-7.6494541277398,"Group 4",20,"Poor","Impaired - Sediment Stressor","OLD","OLD","OLD"
"362","07080DFW","34661","34661 2007","Brush Cr at RM 0.60","MWCF",1.24,"Least disturbed",2007,0,"",1,2175.872,0.177960487510083,0.233559414282533,3.31365634661803,0.0118359032904774,123.8451384,44.38240921,14.247806848775,1.20193334256827,"E","Attaining","Attaining","Attaining","9",14,1.0152349953652,9.35702430383774,-0.0152349953652018,-8.35702430383774,"Group 4",20,"Fair","Attaining","OLD","OLD","OLD"
"363","07081DFW","34662","34662 2007","Scott Cr EF at RM 3.07","MWCF",1,"Least disturbed",2007,0,"",1.27875360095283,2553.757,0.635018038074257,0.225698914485648,3.39880773020326,0.0677717661595123,123.7890291,44.42484098,23.5372045918796,1.20193334256827,"E","Attaining","Attaining","Attaining","18",14,1.0152349953652,9.35702430383774,0.263518605587627,-8.07827070288491,"Group 4",20,"Fair","Attaining","OLD","OLD","OLD"
"364","07082DFW","34663","34663 2007","Beaver Cr NF (RM 6.42) Trib at RM 0.67","MWCF",1.21,"Least disturbed",2007,0,"",1,2289.344,0.777506568644903,0.213283848427395,3.34163233577805,0.0888605393024219,123.9339993,44.53432367,18.6547581061776,1.34528292089677,"E","Attaining","Attaining","Attaining","9",14,1.0152349953652,9.35702430383774,-0.0152349953652018,-8.35702430383774,"Group 4",20,"Fair","Attaining","OLD","OLD","OLD"
"365","07083DFW","34664","34664 2007","Russell Cr at RM 1.07","MWCF",1.14,"Least disturbed",2007,0,"",1.07918124604762,1283.061,0.858802385102353,0.206639783197718,3.13449585583467,0.102359020848742,123.3531673,43.86449357,24.8997991959775,1.47062890563334,"E","Attaining","Attaining","Attaining","11",14,1.0152349953652,9.35702430383774,0.0639462506824231,-8.27784305779012,"Group 4",20,"Good","Attaining","OLD","OLD","OLD"
"366","07084DFW","34665","34665 2007","Siuslaw R at RM 57.02","MWCF",0.62,"Most disturbed",2007,0,"",1.46239799789896,1286.7255,2.76663478626466,0.0161245154965971,3.19005141775921,0.0613233835859233,123.6311416,43.9252695,19.2613602842582,1.47062890563334,"E","Impaired","Impaired","Impaired","28",14,1.0152349953652,9.35702430383774,0.447163002533754,-7.89462630593879,"Group 4",20,"Poor","Impaired - Sediment Stressor","OLD","OLD","OLD"
"367","07085DFW","34666","34666 2007","Trout Cr at RM 3.12","MWCF",1.11,"Least disturbed",2007,0,"",0.845098040014257,2280.825,1.35044592620993,0.191702895126808,3.37162192717602,0.252082072928227,123.9333637,44.487887,18.0277563773199,1.42889927219073,"E","Attaining","Attaining","Attaining","6",8,0.77466588484141,4.95204059846906,0.0704321551728466,-4.10694255845481,"Group 2",11,"Good","Attaining","OLD","OLD","OLD"
"368","07087DFW","34668","34668 2007","Siletz R Trib at RM 1.5","MWCF",1.17,"Least disturbed",2007,0,"",0.954242509439325,2032.64,0.558596983307074,0.185040536099526,3.29047981333067,0.0372977671276524,123.923811,44.79204483,17.6635217326557,0.835481873978228,"E","Attaining","Attaining","Attaining","8",14,1.0152349953652,9.35702430383774,-0.0609924859258769,-8.40278179439842,"Group 4",20,"Fair","Attaining","OLD","OLD","OLD"
"369","07088DFW","34669","34669 2007","Farman Cr at RM 2.15","MWCF",0.95,"Least disturbed",2007,0,"",1.41497334797082,1232.043,1.06784088752785,0.127514705034361,3.11958577496178,0.0696055543729845,123.2596589,43.85986496,27.1661554144122,1.47062890563334,"E","Attaining","Attaining","Attaining","25",14,1.0152349953652,9.35702430383774,0.399738352605616,-7.94205095586692,"Group 4",20,"Poor","Attaining","OLD","OLD","OLD"
"370","07089DFW","34670","34670 2007","Potato Patch Cr at RM 0.97","MWCF",0.81,"Most disturbed",2007,0,"",1.14612803567824,1423.616,0.147781407700444,0.217692443598762,3.19284611518884,0.00826327683722255,123.5901639,43.9966082,24.8997991959775,1.36943840600457,"E","Impaired","Impaired","Impaired","13",14,1.0152349953652,9.35702430383774,0.130893040313036,-8.2108962681595,"Group 4",20,"Good","Impaired - Unknown Stressor","OLD","OLD","OLD"
"371","07090DFW","34671","34671 2007","Nelson Cr at RM 1.95","MWCF",0.86,"Moderately disturbed",2007,0,"",1.17609125905568,1754.46415,1.52318893788454,0.073143694191639,3.27508089845686,0.069339015279983,123.6456,44.09125493,20.4205778566621,1.34528292089677,"E","Attaining","Attaining","Potential Concern","14",14,1.0152349953652,9.35702430383774,0.16085626369048,-8.18093304478206,"Group 4",20,"Good","Attaining","OLD","OLD","OLD"
"372","07091DFW","34672","34672 2007","Deer Cr at Mouth","MWCF",0.84,"Most disturbed",2007,0,"",0.698970004336019,3387.372,1.08984790791122,0.37489998666311,3.43264866001311,0.412962142303933,123.8213551,45.02526028,17.6635217326557,0.825440953414278,"E","Impaired","Impaired","Impaired","4",8,0.77466588484141,4.95204059846906,-0.0756958805053913,-4.25307059413304,"Group 2",11,"Good","Impaired - Unknown Stressor","OLD","OLD","OLD"
"373","07092DFW","34673","34673 2007","Salmon R (RM 15.90) Trib at Mouth","MWCF",1.05,"Least disturbed",2007,0,"",0.778151250383644,3726.01317,1.67319809263432,0.138021737418423,3.38219721037745,0.273827646329782,123.7675186,45.04842487,23.4093998214393,0.825440953414278,"E","Attaining","Attaining","Attaining","5",8,0.77466588484141,4.95204059846906,0.00348536554223344,-4.17388934808542,"Group 2",11,"Good","Attaining","OLD","OLD","OLD"
"395","07114DFW","34695","34695 2007","Fivemile Cr at Mouth","MWCF",0.81,"Most disturbed",2007,0,"",1.34242268082221,2107.49479,1.46417720214897,0.0606630035524124,3.32139127831169,0.042763720002141,124.0143356,43.83805402,5.47722557505166,1.3030329996377,"E","Impaired","Impaired","Impaired","21",14,1.0152349953652,9.35702430383774,0.327187685457004,-8.01460162301554,"Group 4",20,"Poor","Impaired - Sediment Stressor","OLD","OLD","OLD"
"411","07140DFW","34722","34722 2007","Mill Cr at RM 2.51","MWCF",1.1,"Least disturbed",2007,0,"",0.698970004336019,2222.912,0.936028911909021,0.258708329977989,3.37254380075907,0.179178227772399,124.0711032,44.20828125,25.9422435421457,0.500179608697487,"R","Attaining","Attaining","Attaining","4",14,1.0152349953652,9.35702430383774,-0.316264991029183,-8.65805429950172,"Group 4",20,"Fair","Attaining","OLD","OLD","OLD"
"412","08001BMP","10588","10588 2008","Deer Creek at Mouth","MWCF",1.24,"Least disturbed",2008,0,"Yes",1.07918124604762,2293.433,0.823167636881773,0.173982757766395,3.36530074863799,0.0686258467353508,123.8774759,44.53558573,24.1039415863879,1.42889927219073,"E","Attaining","Attaining",NA,"12",14,1.0152349953652,9.35702430383774,0.0639462506824231,-8.27784305779012,"Group 4",20,"Good","Attaining","NEW","NEW","NEW"
"413","08001DFW","35689","35689 2008","WHITTAKER CR AT RM 3.8","MWCF",1.03,"Least disturbed",2008,0,"Yes",0.903089986991944,1677.44242,1.31170131883776,0.152807067899361,3.30663944102426,0.16294270874214,123.6938093,43.95221427,22.8473193175917,1.47062890563334,"E","Attaining","Attaining","Impaired","7",14,1.0152349953652,9.35702430383774,-0.112145008373258,-8.4539343168458,"Group 4",20,"Fair","Attaining","OLD","NEW","NEW"
"414","08002BMP","21842","21842 2008","Flynn Creek at RM 1.71 (Alsea)","MWCF",0.91,"Moderately disturbed",2008,1,"Yes",1.23044892137827,2151.987,1.08311043111515,0.142618371888057,3.34360550810417,0.0884756911660202,123.853562,44.53918973,23.7486841740758,1.42889927219073,"E","Attaining","Attaining","Impaired","16",14,1.0152349953652,9.35702430383774,0.215213926013072,-8.12657538245947,"Group 4",20,"Fair","Attaining","OLD","NEW","NEW"
"415","08002DFW","34646","34646 2008","Clay Cr at RM 0.16 (Siuslaw R)","MWCF",1.2,"Least disturbed",2008,0,"Yes",1.14612803567824,1340.01,0.941501991347391,0.170909332688417,3.16938049531195,0.0885187550805347,123.5654843,43.9014647,20.7364413533277,1.47062890563334,"E","Attaining","Attaining","Attaining","14",14,1.0152349953652,9.35702430383774,0.130893040313036,-8.2108962681595,"Group 4",20,"Good","Attaining","OLD","NEW","NEW"
"416","08003BMP","34521","34521 2008","Needle Branch","MWCF",0.85,"Most disturbed",2008,0,"Yes",1.20411998265592,2350.469,0.434999791350173,0.19565275362233,3.35698140099313,0.0277347788719132,123.8551403,44.51024464,20.976176963403,1.42889927219073,"E","Impaired","Impaired",NA,"15",14,1.0152349953652,9.35702430383774,0.188884987290723,-8.15290432118182,"Group 4",20,"Fair","Impaired - Unknown Stressor","NEW","NEW","NEW"
"417","08003DFW","dfw_2724","dfw_2724 2008","Wapiti Cr","MWCF",0.97,"Least disturbed",2008,0,"Yes",0.778151250383644,2310.123,1.15217455655719,0.277668867538296,3.33665982345442,0.304799160958724,124.0798892,44.12729419,15.0332963783729,0.500179608697487,"R","Attaining","Attaining",NA,"5",3,0.44053025593237,1.75759355853577,0.337620994451274,-0.979442308152127,"Group 1",4,"Poor","Attaining","NEW","NEW","NEW"
"418","08004DFW","21791","21791 2008","Big Cr (Rock Cr Wilderness)","MWCF",0.67,"Most disturbed",2008,1,"Yes",0.845098040014257,2300.54983,1.69311807045694,0.073280283842245,3.28712962071911,0.100210702919769,124.1060567,44.17026689,5.09901951359278,0.500179608697487,"R","Impaired","Potential Concern","Potential Concern","6",14,1.0152349953652,9.35702430383774,-0.170136955350945,-8.51192626382348,"Group 4",20,"Fair","Potential Concern","OLD","NEW","NEW"
"419","08005DFW","dfw_3124","dfw_3124 2008","Maltby Cr","MWCF",1.25,"Enriched",2008,0,"Yes",0.954242509439325,2451.843,0.195921781500569,0.216587164901339,3.31238894937059,0.0114615192856113,123.6782281,44.38319364,22.6936114358204,1.20193334256827,"E","Potential Concern","Potential Concern",NA,"9",14,1.0152349953652,9.35702430383774,-0.0609924859258769,-8.40278179439842,"Group 4",20,"Fair","Potential Concern","NEW","NEW","NEW"
"420","08006DFW","33357","33357 2008","Mill Cr, N Fk","MWCF",1.07,"Least disturbed",2008,0,"Yes",0.954242509439325,3125.27226,1.18961073160776,0.243721152139079,3.32056168019524,0.26945989774472,123.7584755,44.76677713,16.7032930884901,0.775397496610753,"E","Attaining","Attaining","Attaining","8",8,0.77466588484141,4.95204059846906,0.179576624597915,-3.99779808902974,"Group 2",11,"Good","Attaining","OLD","NEW","NEW"
"421","08007DFW","dfw_35212","dfw_35212 2008","Neiglick Canyon","MWCF",0.98,"Least disturbed",2008,0,"Yes",0.698970004336019,2206.01,0.110599810053483,0.328009146213943,3.34360550810417,0.013344727098036,123.9808429,44.27453254,21.51743479135,0.927295218001612,"E","Attaining","Attaining",NA,"4",14,1.0152349953652,9.35702430383774,-0.316264991029183,-8.65805429950172,"Group 4",20,"Fair","Attaining","NEW","NEW","NEW"
"422","08008DFW","dfw_39720","dfw_39720 2008","Lobster Cr S Fk","MWCF",1.09,"Least disturbed",2008,0,"Yes",0.903089986991944,2481.951,0.503158522127655,0.203789106676486,3.29512708525219,0.0377284073360573,123.6042524,44.2319527,33.3466640010661,1.42889927219073,"E","Attaining","Attaining",NA,"7",7,0.717561516606581,4.21869020300477,0.185528470385362,-3.31560021601282,"Group 3",9,"Good","Attaining","NEW","NEW","NEW"
"423","08009DFW","34663","34663 2008","Beaver Cr NF (RM 6.42) Trib at RM 0.67","MWCF",1.14,"Least disturbed",2008,0,"Yes",0.903089986991944,2307.62,0.585212490300883,0.289447750034441,3.3541084391474,0.0929271078883054,123.9324584,44.51955265,20.5669638012031,1.34528292089677,"E","Attaining","Attaining","Attaining","6",14,1.0152349953652,9.35702430383774,-0.112145008373258,-8.4539343168458,"Group 4",20,"Fair","Attaining","OLD","NEW","NEW"
"424","08010DFW","33319","33319 2008","Rogers Cr","MWCF",0.88,"Moderately disturbed",2008,0,"Yes",0.954242509439325,2327.702,0.374817974142649,0.160748250379281,3.31111784266251,0.0151126147210298,123.8862015,44.15886437,20.6639783197718,1.5707963267949,"E","Attaining","Attaining","Attaining","8",14,1.0152349953652,9.35702430383774,-0.0609924859258769,-8.40278179439842,"Group 4",20,"Fair","Attaining","OLD","NEW","NEW"
"425","08011DFW","34722","34722 2008","Mill Cr at RM 2.51","MWCF",1.08,"Least disturbed",2008,0,"Yes",0.903089986991944,2222.912,0.936028911909021,0.258708329977989,3.37254380075907,0.179178227772399,124.0711032,44.20828125,25.9422435421457,0.500179608697487,"R","Attaining","Attaining","Attaining","7",14,1.0152349953652,9.35702430383774,-0.112145008373258,-8.4539343168458,"Group 4",20,"Fair","Attaining","OLD","NEW","NEW"
"426","08012DFW","34658","34658 2008","Cummins Cr at RM 1.94","MWCF",0.94,"Least disturbed",2008,1,"Yes",0.903089986991944,2348.83763,1.58605175728531,0.134499070628759,3.35983548233989,0.2251343548213,124.0725752,44.26947091,12.2882057274445,0.500179608697487,"R","Attaining","Potential Concern","Impaired","7",14,1.0152349953652,9.35702430383774,-0.112145008373258,-8.4539343168458,"Group 4",20,"Fair","Potential Concern","OLD","NEW","NEW"
"427","08013DFW","dfw_2876","dfw_2876 2008","Cedar Cr","MWCF",1.14,"Least disturbed",2008,0,"Yes",1,2012.74,0.0998497689808666,0.331421182183638,3.33000770087276,0.0121589184375765,123.9699813,44.47711395,19.7484176581315,1.42889927219073,"E","Attaining","Attaining",NA,"9",14,1.0152349953652,9.35702430383774,-0.0152349953652018,-8.35702430383774,"Group 4",20,"Fair","Attaining","NEW","NEW","NEW"
"428","08014DFW","28046","28046 2008","North Fork Green River","MWCF",1.17,"Least disturbed",2008,0,"Yes",0.903089986991944,2240.36,1.2800303767106,0.156332977966902,3.32221929473392,0.158750521867278,123.8553855,44.2336502,21.4242852856285,1.42889927219073,"E","Attaining","Attaining","Attaining","7",14,1.0152349953652,9.35702430383774,-0.112145008373258,-8.4539343168458,"Group 4",20,"Fair","Attaining","OLD","NEW","NEW"
"429","08016DFW","dfw_3724","dfw_3724 2008","North Cr","MWCF",1.01,"Least disturbed",2008,0,"Yes",0.602059991327962,2810.6367,1.14258748178155,0.172307864010903,3.44715803134222,0.140695025319824,123.9055827,44.91399624,21.1896201004171,0.835481873978228,"R","Attaining","Attaining",NA,"3",14,1.0152349953652,9.35702430383774,-0.413175004037239,-8.75496431250978,"Group 4",20,"Fair","Attaining","NEW","NEW","NEW"
"430","08018DFW","dfw_2008","dfw_2008 2008","Drew Cr","MWCF",1.03,"Least disturbed",2008,0,"Yes",1,2319.477,0.352136190895797,0.199549492607724,3.30749603791321,0.0210922722219584,123.9626478,44.09972819,14.247806848775,1.42889927219073,"E","Attaining","Attaining",NA,"9",14,1.0152349953652,9.35702430383774,-0.0152349953652018,-8.35702430383774,"Group 4",20,"Fair","Attaining","NEW","NEW","NEW"
"431","08019DFW","dfw_2380","dfw_2380 2008","Pataha Cr","MWCF",1.1,"Least disturbed",2008,0,"Yes",1.30102999566398,1495.47,0.34035090008544,0.184553515274026,3.19256745333655,0.0172485089697729,123.5580528,43.99397366,22.4722050542442,1.36943840600457,"E","Attaining","Attaining",NA,"19",14,1.0152349953652,9.35702430383774,0.285795000298779,-8.05599430817376,"Group 4",20,"Fair","Attaining","NEW","NEW","NEW"
"432","08020DFW","dfw_2464","dfw_2464 2008","Pittenger Cr","MWCF",0.85,"Most disturbed",2008,0,"Yes",1.32221929473392,1489.35,0.629579817333198,0.195780489324141,3.18440748541232,0.0511601702093602,123.5446232,43.97129053,24.1660919471891,1.47062890563334,"E","Impaired","Impaired",NA,"20",14,1.0152349953652,9.35702430383774,0.306984299368718,-8.03480500910382,"Group 4",20,"Poor","Impaired - Sediment Stressor","NEW","NEW","NEW"
"433","08021DFW","17122","17122 2008","Spout Creek","MWCF",0.79,"Most disturbed",2008,0,"Yes",1.11394335230684,1903.77713,1.2587361488795,0.0994484791236146,3.25285303097989,0.0680208155603473,123.6864953,44.55217087,17.464249196573,1.47062890563334,"E","Impaired","Potential Concern","Potential Concern","12",14,1.0152349953652,9.35702430383774,0.0987083569416349,-8.2430809515309,"Group 4",20,"Good","Potential Concern","OLD","NEW","NEW"
"434","08023DFW","dfw_35429","dfw_35429 2008","Salmon R","MWCF",0.8,"Most disturbed",2008,0,"Yes",0.477121254719662,3222.83116,2.16554579341962,0.101439637223326,3.39480177716271,0.397276309969916,123.8726466,45.01891594,13.9283882771841,0.825440953414278,"R","Impaired","Impaired",NA,"2",8,0.77466588484141,4.95204059846906,-0.297544630121748,-4.4749193437494,"Group 2",11,"Good","Impaired - Unknown Stressor","NEW","NEW","NEW"
"435","08024DFW","dfw_39710","dfw_39710 2008","Arnold Cr","MWCF",1.03,"Least disturbed",2008,0,"Yes",0.954242509439325,2207.335,0.19153764114617,0.215011627592556,3.33344727449675,0.0109889164032979,123.9516186,44.39394774,11.8743420870379,1.20193334256827,"E","Attaining","Attaining",NA,"8",14,1.0152349953652,9.35702430383774,-0.0609924859258769,-8.40278179439842,"Group 4",20,"Fair","Attaining","NEW","NEW","NEW"
"436","08025DFW","dfw_39722","dfw_39722 2008","Siuslaw R","MWCF",0.9,"Moderately disturbed",2008,0,"Yes",1.27875360095283,1259.83685,2.55272718856884,0.00894427190999916,3.13640344813399,0.0121974883005392,123.4371323,43.85627175,23.3452350598575,1.47062890563334,"E","Attaining","Attaining",NA,"18",14,1.0152349953652,9.35702430383774,0.263518605587627,-8.07827070288491,"Group 4",20,"Fair","Attaining","NEW","NEW","NEW"
"437","08026DFW","dfw_39729","dfw_39729 2008","Preacher Cr","MWCF",1.09,"Least disturbed",2008,0,"Yes",0.903089986991944,2447.601,0.619103770272466,0.199072850986768,3.27067883614471,0.0512431407930769,123.7387879,44.26043589,18.9208879284245,1.42889927219073,"E","Attaining","Attaining",NA,"7",14,1.0152349953652,9.35702430383774,-0.112145008373258,-8.4539343168458,"Group 4",20,"Fair","Attaining","NEW","NEW","NEW"
"509","08122DFW","33417","33417 2008","Fivemile Cr","MWCF",0.61,"Most disturbed",2008,0,"Yes",1.53147891704226,2107.49479,1.46417720214897,0.0606630035524124,3.31910605930978,0.042763720002141,124.0249086,43.83928508,5.09901951359278,1.3030329996377,"E","Impaired","Potential Concern","Impaired","32",14,1.0152349953652,9.35702430383774,0.516243921677053,-7.82554538679549,"Group 4",20,"Poor","Potential Concern","OLD","NEW","NEW"
"510","08123DFW","dfw_6041","dfw_6041 2008","Five Mile Cr","MWCF",0.64,"Most disturbed",2008,0,"Yes",1.41497334797082,2100.86115,1.04327973457449,0.106207344378814,3.32283927268632,0.0466279343556076,124.0106306,43.83659574,7.48331477354788,1.3030329996377,"E","Impaired","Impaired",NA,"25",14,1.0152349953652,9.35702430383774,0.399738352605616,-7.94205095586692,"Group 4",20,"Poor","Impaired - Sediment Stressor","NEW","NEW","NEW"
"511","08124DFW","dfw_6080","dfw_6080 2008","Bear Cr Trib D","MWCF",0.96,"Least disturbed",2008,0,"Yes",1.23044892137827,2134.629,0.535277659590122,0.270444079247448,3.33324569896196,0.0710423054714698,123.9833742,43.90062475,12.9228479833201,1.3030329996377,"E","Attaining","Attaining",NA,"16",14,1.0152349953652,9.35702430383774,0.215213926013072,-8.12657538245947,"Group 4",20,"Fair","Attaining","NEW","NEW","NEW"
"512","08125DFW","dfw_6104","dfw_6104 2008","Carle Cr","MWCF",1,"Least disturbed",2008,0,"Yes",1.34242268082221,2059.286,0.614878241587879,0.239812426700536,3.33223641549144,0.0716688003040358,124.0325845,43.90420003,11.4455231422596,1.3030329996377,"E","Attaining","Attaining",NA,"21",14,1.0152349953652,9.35702430383774,0.327187685457004,-8.01460162301554,"Group 4",20,"Poor","Attaining","NEW","NEW","NEW"
"516","08129DFW","dfw_2492","dfw_2492 2008","Wolf Cr at RM 3.12 (Umpqua)","MWCF",0.85,"Most disturbed",2008,0,"Yes",1.07918124604762,1401.21975,1.97719325947162,0.106583300755794,3.14983469671578,0.315240226865684,123.4295192,43.92493463,26.9258240356725,1.47062890563334,"E","Impaired","Impaired",NA,"11",8,0.77466588484141,4.95204059846906,0.304515361206215,-3.87285935242144,"Group 2",11,"Poor","Impaired - Sediment Stressor","NEW","NEW","NEW"
"517","08130DFW","dfw_3544","dfw_3544 2008","Sams Cr","MWCF",1.05,"Least disturbed",2008,0,"Yes",1.14612803567824,2106.68942,1.26917565132068,0.0886002257333467,3.28600712207947,0.0561600631884284,123.7855751,44.71769463,15.7797338380595,0.835481873978228,"E","Attaining","Attaining",NA,"14",14,1.0152349953652,9.35702430383774,0.130893040313036,-8.2108962681595,"Group 4",20,"Good","Attaining","NEW","NEW","NEW"
"518","08131DFW","dfw_3622","dfw_3622 2008","Whiskey Cr","MWCF",0.89,"Moderately disturbed",2008,0,"Yes",1.23044892137827,3370.427,0.794075863901423,0.156907616131276,3.45484486000851,0.0525466245643863,123.7046902,44.80277113,29.5972971738975,0.775397496610753,"E","Attaining","Attaining",NA,"16",14,1.0152349953652,9.35702430383774,0.215213926013072,-8.12657538245947,"Group 4",20,"Fair","Attaining","NEW","NEW","NEW"
"519","08133DFW","dfw_39708","dfw_39708 2008","Drift Cr","MWCF",0.92,"Least disturbed",2008,0,"Yes",0.845098040014257,3208.92055,2.16380711650784,0.0818535277187245,3.4144719496293,0.294526087435911,123.9119295,44.90130698,15.6843871413581,0.835481873978228,"R","Attaining","Attaining",NA,"6",8,0.77466588484141,4.95204059846906,0.0704321551728466,-4.10694255845481,"Group 2",11,"Good","Attaining","NEW","NEW","NEW"
"520","08134DFW","dfw_39715","dfw_39715 2008","Long Prarie Cr","MWCF",0.98,"Least disturbed",2008,0,"Yes",1.11394335230684,2051.63319,1.1161370032689,0.0908845421400141,3.29600666931367,0.0412599113063014,123.815478,44.71015399,14.7309198626562,0.835481873978228,"E","Attaining","Attaining",NA,"13",14,1.0152349953652,9.35702430383774,0.0987083569416349,-8.2430809515309,"Group 4",20,"Good","Attaining","NEW","NEW","NEW"
"521","08135DFW","dfw_39719","dfw_39719 2008","N Fk Roy Cr","MWCF",0.68,"Most disturbed",2008,0,"Yes",1.56820172406699,2157.063,0.881687587061307,0.168760184877832,3.29292029960001,0.0749641155058283,123.9861446,44.79236612,9.4339811320566,0.835481873978228,"E","Impaired","Impaired",NA,"35",14,1.0152349953652,9.35702430383774,0.552966728701793,-7.78882257977075,"Group 4",20,"Poor","Impaired - Sediment Stressor","NEW","NEW","NEW"
"522","08136DFW","dfw_39723","dfw_39723 2008","Wright Cr Trib B","MWCF",1.08,"Least disturbed",2008,0,"Yes",1.14612803567824,2096.8942,1.47538161056565,0.0327108544675923,3.28981183911762,0.013217245262879,123.962363,44.55458213,5.47722557505166,1.28403977458335,"E","Attaining","Attaining",NA,"13",14,1.0152349953652,9.35702430383774,0.130893040313036,-8.2108962681595,"Group 4",20,"Good","Attaining","NEW","NEW","NEW"
"523","08137DFW","dfw_39731","dfw_39731 2008","Cougar Cr","MWCF",0.89,"Moderately disturbed",2008,0,"Yes",1.20411998265592,1929.325,1.0965568749184,0.160374561573836,3.27230584440209,0.112443681107158,123.757134,44.58458305,16.4924225024706,1.47062890563334,"E","Attaining","Attaining",NA,"15",14,1.0152349953652,9.35702430383774,0.188884987290723,-8.15290432118182,"Group 4",20,"Fair","Attaining","NEW","NEW","NEW"
"524","08138DFW","dfw_2283","dfw_2283 2008","Nelson Cr","MWCF",1,"Least disturbed",2008,0,"Yes",1.17609125905568,1754.46415,1.52318893788454,0.073143694191639,3.26951294421792,0.069339015279983,123.6510902,44.09269557,19.8494332412792,1.34528292089677,"E","Attaining","Attaining",NA,"15",14,1.0152349953652,9.35702430383774,0.16085626369048,-8.18093304478206,"Group 4",20,"Fair","Attaining","NEW","NEW","NEW"
"525","08139DFW","dfw_2974","dfw_2974 2008","Bear Cr","MWCF",1.03,"Least disturbed",2008,0,"Yes",0.845098040014257,2061.604,0.292143051454897,0.250059992801727,3.33645973384853,0.025304599253539,123.7748032,44.35307794,30.1496268633627,1.42889927219073,"E","Attaining","Attaining",NA,"6",14,1.0152349953652,9.35702430383774,-0.170136955350945,-8.51192626382348,"Group 4",20,"Fair","Attaining","NEW","NEW","NEW"
"526","08141DFW","34644","34644 2008","Crooked Cr at RM 1.18 (NF Alsea R)","MWCF",0.85,"Most disturbed",2008,0,"Yes",0.903089986991944,2181.47086,0.974286427537166,0.124498995979887,3.22942584792069,0.0533048344486056,123.5416946,44.42178109,20.976176963403,0.886077123792614,"E","Impaired","Potential Concern","Attaining","7",14,1.0152349953652,9.35702430383774,-0.112145008373258,-8.4539343168458,"Group 4",20,"Fair","Potential Concern","OLD","NEW","NEW"
"527","08142DFW","21790","21790 2008","Elkhorn Creek at RM 1.56","MWCF",1.14,"Least disturbed",2008,0,"Yes",1,2124.81557,1.14686137385629,0.103923048454133,3.31973049433022,0.0571545095575216,123.9890525,44.50037836,9.89949493661167,1.34528292089677,"E","Attaining","Attaining","Attaining","9",14,1.0152349953652,9.35702430383774,-0.0152349953652018,-8.35702430383774,"Group 4",20,"Fair","Attaining","OLD","NEW","NEW"
"528","08143DFW","dfw_35002","dfw_35002 2008","Meadow Cr.","MWCF",1.03,"Least disturbed",2008,0,"Yes",1.04139268515823,1635.92373,0.523457708036839,0.197002538054716,3.24674470972384,0.0377169565471097,123.6626738,44.02472442,21.0475651798492,1.32332926362445,"E","Attaining","Attaining",NA,"10",14,1.0152349953652,9.35702430383774,0.0261576897930234,-8.31563161867952,"Group 4",20,"Good","Attaining","NEW","NEW","NEW"
"529","08144DFW","dfw_39721","dfw_39721 2008","Big Cr","MWCF",0.81,"Most disturbed",2008,0,"Yes",0.903089986991944,2329.90487,1.63866663251944,0.103440804327886,3.34024576156793,0.162845125392867,124.0823574,44.16875265,10.2469507659596,0.500179608697487,"R","Impaired","Impaired",NA,"7",14,1.0152349953652,9.35702430383774,-0.112145008373258,-8.4539343168458,"Group 4",20,"Fair","Impaired - Unknown Stressor","NEW","NEW","NEW"
"530","08145DFW","dfw_3285","dfw_3285 2008","West Olla Cr Trib A","MWCF",0.69,"Most disturbed",2008,0,"Yes",1.66275783168157,1970.785,0.642833365485514,0.116704755687161,3.27021285489624,0.0196240984596598,123.9248572,44.6624987,8.30662386291807,1.28403977458335,"E","Impaired","Impaired",NA,"45",14,1.0152349953652,9.35702430383774,0.647522836316372,-7.69426647215617,"Group 4",20,"Poor","Impaired - Sediment Stressor","NEW","NEW","NEW"
"531","08146DFW","dfw_39716","dfw_39716 2008","Adams Cr","MWCF",1.19,"Least disturbed",2008,0,"Yes",0.903089986991944,2533.125,0.222110116231002,0.303842064237327,3.3392526340327,0.0259769845093134,123.6068559,44.51800436,28.2311884269862,1.47062890563334,"E","Attaining","Attaining",NA,"7",14,1.0152349953652,9.35702430383774,-0.112145008373258,-8.4539343168458,"Group 4",20,"Fair","Attaining","NEW","NEW","NEW"
"532","08147DFW","dfw_39730","dfw_39730 2008","Sweet Cr","MWCF",0.89,"Moderately disturbed",2008,0,"Yes",0.903089986991944,2225.44687,1.80856542327016,0.15582040944626,3.33203427702752,0.404525617339356,123.903327,43.96337688,11.4455231422596,1.32332926362445,"E","Attaining","Attaining",NA,"7",8,0.77466588484141,4.95204059846906,0.128424102150533,-4.04895061147712,"Group 2",11,"Good","Attaining","NEW","NEW","NEW"
"536","09003DFW","dfw_35004","dfw_35004 2009","Alsea River","MWCF",0.51,"Most disturbed",2009,0,"Yes",1.34242268082221,2310.98889,2.48314965855974,0.0441588043316392,3.18298496700358,0.201732127022241,123.6852285,44.35273183,14.9331845230681,1.20193334256827,"E","Impaired","Impaired",NA,"21",14,1.0152349953652,9.35702430383774,0.327187685457004,-8.01460162301554,"Group 4",20,"Poor","Impaired - Sediment Stressor","NEW","NEW","NEW"
"538","09006DFW","33329","33329 2009","Bear Cr","MWCF",0.84,"Most disturbed",2009,0,"Yes",1.34242268082221,1301.5703,0.994206694941177,0.129769025580067,3.14829409743475,0.0604441881665441,123.5119022,43.85549129,23.3452350598575,1.47062890563334,"E","Impaired","Impaired",NA,"21",14,1.0152349953652,9.35702430383774,0.327187685457004,-8.01460162301554,"Group 4",20,"Poor","Impaired - Sediment Stressor","OLD","OLD","OLD"
"539","09007DFW","33351","33351 2009","(blank)","MWCF",1.01,"Least disturbed",2009,0,"Yes",1.34242268082221,2039.763,1.36823703582245,0.173176210837401,3.26126286879249,0.222767472268902,123.8362989,44.59295672,16,1.47062890563334,"E","Attaining","Attaining",NA,"21",14,1.0152349953652,9.35702430383774,0.327187685457004,-8.01460162301554,"Group 4",20,"Poor","Attaining","NEW","NEW","NEW"
"540","09008DFW","33418","33418 2009","Bell Cr","MWCF",0.93,"Least disturbed",2009,0,"Yes",1.36172783601759,2115.124,1.17071601968897,0.158335087709579,3.32139127831169,0.129159372703248,124.0127305,43.84129345,6.78232998312527,1.3030329996377,"E","Attaining","Potential Concern","Impaired","22",14,1.0152349953652,9.35702430383774,0.346492840652391,-7.99529646782015,"Group 4",20,"Poor","Potential Concern","OLD","NEW","NEW"
"548","09029DFW","34646","34646 2009","Clay Cr at RM 0.16 (Siuslaw R)","MWCF",1.2,"Least disturbed",2009,0,"Yes",1.17609125905568,1340.01,0.941501991347391,0.170909332688417,3.16938049531195,0.0885187550805347,123.5654843,43.9014647,20.7364413533277,1.47062890563334,"E","Attaining","Attaining","Attaining","14",14,1.0152349953652,9.35702430383774,0.16085626369048,-8.18093304478206,"Group 4",20,"Good","Attaining","OLD","NEW","NEW"
"549","09031DFW","23823","23823 2009","Condon Cr","MWCF",1.1,"Least disturbed",2009,0,"Yes",1,2227.242,0.339381869112333,0.209499403340439,3.3142886609475,0.0220133821537293,123.9853486,44.08528001,13.1909059582729,1.42889927219073,"E","Attaining","Attaining","Attaining","9",14,1.0152349953652,9.35702430383774,-0.0152349953652018,-8.35702430383774,"Group 4",20,"Fair","Attaining","OLD","NEW","NEW"
"554","09037DFW","23820","23820 2009","Crab Creek at RM 4.8 (Five Rivers, Alsea)","MWCF",1.09,"Least disturbed",2009,0,"Yes",1.07918124604762,2152.455,1.44460573568862,0.134833230325465,3.31534047662729,0.172567090804738,123.8504347,44.26108329,18.3847763108502,1.42889927219073,"E","Attaining","Attaining","Attaining","11",14,1.0152349953652,9.35702430383774,0.0639462506824231,-8.27784305779012,"Group 4",20,"Good","Attaining","OLD","NEW","NEW"
"556","09039DFW","34644","34644 2009","Crooked Cr at RM 1.18 (NF Alsea R)","MWCF",1.1,"Least disturbed",2009,0,"Yes",1.04139268515823,2181.47086,0.974286427537166,0.124498995979887,3.22942584792069,0.0533048344486056,123.5416946,44.42178109,20.976176963403,0.886077123792614,"E","Attaining","Potential Concern","Attaining","10",14,1.0152349953652,9.35702430383774,0.0261576897930234,-8.31563161867952,"Group 4",20,"Good","Potential Concern","OLD","NEW","NEW"
"559","09046DFW","dfw_39983","dfw_39983 2009","Drift Cr.","MWCF",0.79,"Most disturbed",2009,0,"Yes",1.20411998265592,3127.56049,2.22211134020288,0.0286356421265527,3.38201704257487,0.0553513113773437,123.9651069,44.90582306,5.09901951359278,0.835481873978228,"R","Impaired","Impaired",NA,"15",14,1.0152349953652,9.35702430383774,0.188884987290723,-8.15290432118182,"Group 4",20,"Fair","Impaired - Unknown Stressor","NEW","NEW","NEW"
"561","09048DFW","dfw_2144","dfw_2144 2009","Elk Cr.","MWCF",1.04,"Least disturbed",2009,0,"Yes",1.11394335230684,2202.674,0.243516749536932,0.187803088366512,3.31238894937059,0.0113676568554381,123.8596199,44.11635706,19.8494332412792,1.5707963267949,"E","Attaining","Attaining",NA,"12",14,1.0152349953652,9.35702430383774,0.0987083569416349,-8.2430809515309,"Group 4",20,"Good","Attaining","NEW","NEW","NEW"
"568","09056DFW","dfw_36062","dfw_36062 2009","Fall Creek","MWCF",1,"Least disturbed",2009,0,"Yes",1.04139268515823,2878.15003,1.52877958034584,0.0961249187255833,3.3055663135153,0.114935552748344,123.7433284,44.39324346,13.7840487520902,1.20193334256827,"E","Attaining","Attaining",NA,"10",14,1.0152349953652,9.35702430383774,0.0261576897930234,-8.31563161867952,"Group 4",20,"Good","Attaining","NEW","NEW","NEW"
"569","09057DFW","dfw_39964","dfw_39964 2009","Fish Cr.","MWCF",1.1,"Least disturbed",2009,0,"Yes",1.11394335230684,1880.13776,1.42769671356748,0.122024587686253,3.18949031369937,0.141060669465134,123.5724065,44.14782048,22.4722050542442,1.34528292089677,"R","Attaining","Attaining",NA,"12",14,1.0152349953652,9.35702430383774,0.0987083569416349,-8.2430809515309,"Group 4",20,"Good","Attaining","NEW","NEW","NEW"
"571","09059DFW","33417","33417 2009","Fivemile Cr","MWCF",0.93,"Least disturbed",2009,0,"Yes",1.41497334797082,2107.49479,1.46417720214897,0.0606630035524124,3.31910605930978,0.042763720002141,124.0249086,43.83928508,5.09901951359278,1.3030329996377,"E","Attaining","Potential Concern","Impaired","26",14,1.0152349953652,9.35702430383774,0.399738352605616,-7.94205095586692,"Group 4",20,"Poor","Potential Concern","OLD","NEW","NEW"
"574","09063DFW","28046","28046 2009","North Fork Green River","MWCF",1.04,"Least disturbed",2009,0,"Yes",1,2240.36,1.2800303767106,0.156332977966902,3.32221929473392,0.158750521867278,123.8553855,44.2336502,21.4242852856285,1.42889927219073,"E","Attaining","Attaining","Attaining","9",14,1.0152349953652,9.35702430383774,-0.0152349953652018,-8.35702430383774,"Group 4",20,"Fair","Attaining","OLD","NEW","NEW"
"575","09064DFW","dfw_39988","dfw_39988 2009","Haight","MWCF",0.76,"Most disturbed",2009,0,"Yes",1.25527250510331,1283.205,1.18309666093129,0.133191591326179,3.14395111642396,0.0978426193556381,123.497517,43.87268114,24.3104915622864,1.47062890563334,"E","Impaired","Impaired",NA,"17",14,1.0152349953652,9.35702430383774,0.240037509738104,-8.10175179873444,"Group 4",20,"Fair","Impaired - Unknown Stressor","NEW","NEW","NEW"
"583","09076DFW","dfw_39980","dfw_39980 2009","Lake Cr.","MWCF",0.97,"Least disturbed",2009,0,"Yes",1.49136169383427,1928.087,0.335213102255668,0.0802496105909555,3.18554215485437,0.00324278871682173,123.5206362,44.19313717,26.6833281282527,1.34528292089677,"E","Attaining","Attaining",NA,"30",14,1.0152349953652,9.35702430383774,0.476126698469071,-7.86566261000347,"Group 4",20,"Poor","Attaining","NEW","NEW","NEW"
"588","09084DFW","dfw_2150","dfw_2150 2009","Long Cr.","MWCF",1.04,"Least disturbed",2009,0,"Yes",1.20411998265592,2249.33,0.148602654806093,0.172336879396141,3.31154195840119,0.00523097699371836,123.8823117,44.13968444,23.6220236220354,1.5707963267949,"E","Attaining","Attaining",NA,"15",14,1.0152349953652,9.35702430383774,0.188884987290723,-8.15290432118182,"Group 4",20,"Fair","Attaining","NEW","NEW","NEW"
"590","09087DFW","dfw_1998","dfw_1998 2009","McLeod Cr.","MWCF",0.69,"Most disturbed",2009,0,"Yes",0.954242509439325,2152.304,1.55150135391857,0.12397580409096,3.3155505344219,0.185220977764923,123.9036961,44.0896524,15.4919333848297,1.42889927219073,"E","Impaired","Impaired",NA,"8",14,1.0152349953652,9.35702430383774,-0.0609924859258769,-8.40278179439842,"Group 4",20,"Fair","Impaired - Unknown Stressor","NEW","NEW","NEW"
"591","09088DFW","dfw_35002","dfw_35002 2009","Meadow Cr.","MWCF",1.1,"Least disturbed",2009,0,"Yes",1.17609125905568,1635.92373,0.523457708036839,0.197002538054716,3.24674470972384,0.0377169565471097,123.6626738,44.02472442,21.0475651798492,1.32332926362445,"E","Attaining","Attaining",NA,"14",14,1.0152349953652,9.35702430383774,0.16085626369048,-8.18093304478206,"Group 4",20,"Good","Attaining","NEW","NEW","NEW"
"592","09089DFW","34722","34722 2009","Mill Cr at RM 2.51","MWCF",1.1,"Least disturbed",2009,0,"Yes",0.903089986991944,2222.912,0.936028911909021,0.258708329977989,3.37254380075907,0.179178227772399,124.0711032,44.20828125,25.9422435421457,0.500179608697487,"R","Attaining","Attaining","Attaining","7",14,1.0152349953652,9.35702430383774,-0.112145008373258,-8.4539343168458,"Group 4",20,"Fair","Attaining","OLD","NEW","NEW"
"593","09090DFW","dfw_36061","dfw_36061 2009","N. F. Alsea R.","MWCF",0.9,"Moderately disturbed",2009,0,"Yes",1.23044892137827,2451.86396,1.93773593735244,0.0600832755431992,3.21906033244886,0.116997039634569,123.5715002,44.39341011,17.6635217326557,0.886077123792614,"E","Attaining","Attaining",NA,"16",14,1.0152349953652,9.35702430383774,0.215213926013072,-8.12657538245947,"Group 4",20,"Fair","Attaining","NEW","NEW","NEW"
"594","09091DFW","34663","34663 2009","Beaver Cr NF (RM 6.42) Trib at RM 0.67","MWCF",1.01,"Least disturbed",2009,0,"Yes",0.903089986991944,2307.62,0.585212490300883,0.289447750034441,3.3541084391474,0.0929271078883054,123.9324292,44.51919386,20.4205778566621,1.34528292089677,"E","Attaining","Attaining","Attaining","7",14,1.0152349953652,9.35702430383774,-0.112145008373258,-8.4539343168458,"Group 4",20,"Fair","Attaining","OLD","NEW","NEW"
"595","09092DFW","33357","33357 2009","Mill Cr, N Fk","MWCF",1.13,"Least disturbed",2009,0,"Yes",0.903089986991944,3125.27226,1.18961073160776,0.243721152139079,3.32056168019524,0.26945989774472,123.7584755,44.76677713,16.7032930884901,0.775397496610753,"E","Attaining","Attaining","Attaining","7",8,0.77466588484141,4.95204059846906,0.128424102150533,-4.04895061147712,"Group 2",11,"Good","Attaining","OLD","NEW","NEW"
"604","09101DFW","34645","34645 2009","Russell Cr at RM 0.20","MWCF",0.85,"Most disturbed",2009,0,"Yes",1.47712125471966,1283.78192,1.07644127052732,0.101143462467922,3.1300119496719,0.0460102405760705,123.3602292,43.85458226,23.6220236220354,1.47062890563334,"E","Impaired","Impaired","Attaining","29",14,1.0152349953652,9.35702430383774,0.461886259354461,-7.87990304911808,"Group 4",20,"Poor","Impaired - Sediment Stressor","OLD","NEW","NEW"
"615","09117DFW","dfw_39965","dfw_39965 2009","Sutton Cr.","MWCF",0.54,"Most disturbed",2009,0,"Yes",1.55630250076729,2102.36885,1.86045336382451,0.0428952211790544,3.24895361549571,0.0536911879406441,124.1176818,44.0677351,4,0.500179608697487,"E","Impaired","Impaired",NA,"35",14,1.0152349953652,9.35702430383774,0.541067505402085,-7.80072180307045,"Group 4",20,"Poor","Impaired - Sediment Stressor","NEW","NEW","NEW"
"616","09118DFW","dfw_36277","dfw_36277 2009","Sweet Cr.","MWCF",0.49,"Most disturbed",2009,0,"Yes",1.5910646070265,2218.5848,1.95704204926722,0.0148323969741913,3.31868926994775,0.00847584654005308,123.8948457,43.99179068,5.09901951359278,1.32332926362445,"E","Impaired","Impaired",NA,"38",14,1.0152349953652,9.35702430383774,0.575829611661297,-7.76595969681124,"Group 4",20,"Poor","Impaired - Sediment Stressor","NEW","NEW","NEW"
"617","09119DFW","dfw_3370","dfw_3370 2009","Thornton Cr.","MWCF",0.96,"Least disturbed",2009,0,"Yes",1.30102999566398,2003.12457,1.26446245309236,0.0827042925125413,3.27137687189407,0.0487963422050577,123.838146,44.65817789,6.78232998312527,1.47062890563334,"E","Attaining","Attaining",NA,"20",14,1.0152349953652,9.35702430383774,0.285795000298779,-8.05599430817376,"Group 4",20,"Poor","Attaining","NEW","NEW","NEW"
"620","09122DFW","dfw_1981","dfw_1981 2009","Uncle Cr.","MWCF",1.11,"Least disturbed",2009,0,"Yes",0.954242509439325,2349.1,1.04988214029361,0.237970586417734,3.31576049066573,0.198271173536113,124.0054305,44.08261949,12.4096736459909,1.42889927219073,"E","Attaining","Attaining",NA,"8",14,1.0152349953652,9.35702430383774,-0.0609924859258769,-8.40278179439842,"Group 4",20,"Fair","Attaining","NEW","NEW","NEW"
"629","09134DFW","33325","33325 2009","Wolf Cr","MWCF",0.81,"Most disturbed",2009,0,"Yes",1.14612803567824,1415.18554,2.18000974180031,0.0478539444560216,3.17201880942456,0.128503726273874,123.5258468,43.94045499,23.685438564654,1.47062890563334,"E","Impaired","Impaired","Attaining","13",14,1.0152349953652,9.35702430383774,0.130893040313036,-8.2108962681595,"Group 4",20,"Good","Impaired - Unknown Stressor","OLD","NEW","NEW"
"634","09141DFW","dfw_3429","dfw_3429 2009","Yaquina R.","MWCF",1.01,"Least disturbed",2009,0,"Yes",1.25527250510331,2062.10247,1.40681259347842,0.0630079360080935,3.15624619039734,0.0403366668308758,123.6070904,44.65396144,15.3622914957372,1.47062890563334,"E","Attaining","Attaining",NA,"17",14,1.0152349953652,9.35702430383774,0.240037509738104,-8.10175179873444,"Group 4",20,"Fair","Attaining","NEW","NEW","NEW"
"635","09142DFW","33319","33319 2009","Rogers Cr","MWCF",1.12,"Least disturbed",2009,0,"Yes",1,2327.702,0.374817974142649,0.160748250379281,3.31111784266251,0.0151126147210298,123.8862015,44.15886437,20.6639783197718,1.5707963267949,"E","Attaining","Attaining","Attaining","9",14,1.0152349953652,9.35702430383774,-0.0152349953652018,-8.35702430383774,"Group 4",20,"Fair","Attaining","OLD","NEW","NEW"
"636","09143DFW","dfw_2950","dfw_2950 2009","Scott Cr.","MWCF",1.06,"Least disturbed",2009,0,"Yes",0.903089986991944,2581.76313,0.977921507044835,0.139499103939774,3.32878720035453,0.0665101397288636,123.8323341,44.40019297,6.2449979983984,1.20193334256827,"E","Attaining","Attaining",NA,"7",14,1.0152349953652,9.35702430383774,-0.112145008373258,-8.4539343168458,"Group 4",20,"Fair","Attaining","NEW","NEW","NEW"
"637","09144DFW","dfw_3073","dfw_3073 2009","Alder Cr.","MWCF",1.06,"Least disturbed",2009,0,"Yes",1.38021124171161,2067.45,0.136314613296712,0.188997354478839,3.30081279411812,0.00568261245776384,123.8243202,44.28640183,15.3622914957372,1.42889927219073,"E","Attaining","Attaining",NA,"23",14,1.0152349953652,9.35702430383774,0.364976246346404,-7.97681306212614,"Group 4",20,"Poor","Attaining","NEW","NEW","NEW"
"644","09156DFW","dfw_2782","dfw_2782 2009","Wildcat Cr.","MWCF",1.21,"Least disturbed",2009,0,"Yes",0.778151250383644,2477.943,0.341648156782479,0.296428743545561,3.41010207664286,0.043401402064843,123.9715693,44.22428345,25.1594912508182,0.500179608697487,"R","Attaining","Attaining",NA,"6",14,1.0152349953652,9.35702430383774,-0.237083744981558,-8.5788730534541,"Group 4",20,"Fair","Attaining","NEW","NEW","NEW"
"645","09157DFW","21791","21791 2009","Big Cr (Rock Cr Wilderness)","MWCF",1.17,"Least disturbed",2009,1,"Yes",0.954242509439325,2300.54983,1.69311807045694,0.073280283842245,3.28712962071911,0.100210702919769,124.1060567,44.17026689,5.09901951359278,0.500179608697487,"R","Attaining","Potential Concern","Potential Concern","8",14,1.0152349953652,9.35702430383774,-0.0609924859258769,-8.40278179439842,"Group 4",20,"Fair","Potential Concern","OLD","NEW","NEW"
"646","09158DFW","dfw_2891","dfw_2891 2009","Flynn Cr.","MWCF",0.58,"Most disturbed",2009,0,"Yes",1.68124123737559,2151.987,1.08311043111515,0.142618371888057,3.35082927358297,0.0884756911660202,123.8594901,44.52614304,22.248595461287,1.42889927219073,"E","Impaired","Impaired",NA,"46",14,1.0152349953652,9.35702430383774,0.666006242010385,-7.67578306646215,"Group 4",20,"Poor","Impaired - Sediment Stressor","NEW","NEW","NEW"
"647","09159DFW","34663","34663 2009","Beaver Cr NF (RM 6.42) Trib at RM 0.67","MWCF",1.11,"Least disturbed",2009,0,"Yes",1,2289.344,0.777506568644903,0.213283848427395,3.34163233577805,0.0888605393024219,123.9339993,44.53432367,18.6547581061776,1.34528292089677,"E","Attaining","Attaining","Attaining","9",14,1.0152349953652,9.35702430383774,-0.0152349953652018,-8.35702430383774,"Group 4",20,"Fair","Attaining","OLD","NEW","NEW"
"648","09160DFW","dfw_39969","dfw_39969 2009","Skunk Cr.","MWCF",1.2,"Least disturbed",2009,0,"Yes",0.845098040014257,3143.655,0.461644067579184,0.312921715449727,3.30813737863804,0.0739218757137328,123.7128,44.39372194,18.6547581061776,1.20193334256827,"E","Attaining","Attaining",NA,"6",14,1.0152349953652,9.35702430383774,-0.170136955350945,-8.51192626382348,"Group 4",20,"Fair","Attaining","NEW","NEW","NEW"
"649","09161DFW","dfw_3725","dfw_3725 2009","Wildcat Cr.","MWCF",1,"Least disturbed",2009,0,"Yes",0.477121254719662,2788.598,0.84697818202264,0.249058226123933,3.42634857378751,0.138006914304799,123.8901386,44.89854511,22.1810730128188,0.835481873978228,"R","Attaining","Attaining",NA,"2",14,1.0152349953652,9.35702430383774,-0.538113740645539,-8.87990304911808,"Group 4",20,"Fair","Attaining","NEW","NEW","NEW"
"650","09162DFW","23821","23821 2009","Buck Creek (Deadwood)","MWCF",1.2,"Least disturbed",2009,0,"Yes",0.845098040014257,2128.535,0.220152561703746,0.24897791066679,3.30535136944662,0.0174189960679312,123.6870096,44.19681741,25.4165300542777,1.47062890563334,"E","Attaining","Potential Concern","Potential Concern","6",14,1.0152349953652,9.35702430383774,-0.170136955350945,-8.51192626382348,"Group 4",20,"Fair","Potential Concern","OLD","NEW","NEW"
"651","09163DFW","dfw_39974","dfw_39974 2009","Big Rock Cr.","MWCF",1.04,"Least disturbed",2009,0,"Yes",0.954242509439325,2816.59786,1.8455893833199,0.0933273807625608,3.27508089845686,0.204575801431421,123.7174808,44.73416536,15.6843871413581,1.32332926362445,"E","Attaining","Attaining",NA,"8",14,1.0152349953652,9.35702430383774,-0.0609924859258769,-8.40278179439842,"Group 4",20,"Fair","Attaining","NEW","NEW","NEW"
"652","09164DFW","dfw_2287","dfw_2287 2009","Nelson Cr.","MWCF",1,"Least disturbed",2009,0,"Yes",1.11394335230684,1811.12,0.23960975740236,0.193313217344288,3.21722065564452,0.011787447387084,123.5653207,44.11680494,26.3818119165458,1.34528292089677,"E","Attaining","Attaining",NA,"12",14,1.0152349953652,9.35702430383774,0.0987083569416349,-8.2430809515309,"Group 4",20,"Good","Attaining","NEW","NEW","NEW"
"653","12001MCB","37174","37174 2012","Big Elk Creek at RM 19.89","MWCF",1.11,"Least disturbed",2012,0,"Yes",1.63346845557959,2248.66202,1.88967923446885,0.0537587202228625,3.23426412437879,0.0868151689378336,123.723232,44.549215,13.7113092008021,1.47062890563334,"E","Attaining","Attaining",NA,"12",14,1.0152349953652,9.35702430383774,0.618233460214385,-7.72355584825816,"Group 4",20,"Good","Attaining","NEW","NEW","NEW"
"654","12002MCB","37176","37176 2012","Big Elk Creek at RM 29.84","MWCF",0.76,"Most disturbed",2012,0,"Yes",0.903089986991944,2531.03,0.121395680707223,0.344905784236797,3.41313205043487,0.0163498737102206,123.6078241,44.50262327,31.1126983722081,1.47062890563334,"E","Impaired","Impaired",NA,"6",14,1.0152349953652,9.35702430383774,-0.112145008373258,-8.4539343168458,"Group 4",20,"Fair","Impaired - Unknown Stressor","NEW","NEW","NEW"
"655","12003MCB","37183","37183 2012","Wolf Creek at RM 2.45","MWCF",1.14,"Least disturbed",2012,0,"Yes",1.23044892137827,1832.207,0.355960803808454,0.111130553854464,3.27067883614471,0.00675702944326796,123.7077152,44.57765165,18.1383571472171,1.47062890563334,"E","Attaining","Attaining",NA,"8",14,1.0152349953652,9.35702430383774,0.215213926013072,-8.12657538245947,"Group 4",20,"Fair","Attaining","NEW","NEW","NEW"
"656","12004MCB","37189","37189 2012","Big Elk Creek at RM 17.08","MWCF",1.01,"Least disturbed",2012,0,"Yes",1.17609125905568,2188.43034,1.96832578023316,0.0563914887194867,3.26197619139781,0.111414756600058,123.7558245,44.55317956,12.2065556157337,1.47062890563334,"E","Attaining","Attaining",NA,"10",14,1.0152349953652,9.35702430383774,0.16085626369048,-8.18093304478206,"Group 4",20,"Good","Attaining","NEW","NEW","NEW"
"657","12005MCB","37181","37181 2012","Cougar Creek at RM 0.26","MWCF",0.67,"Most disturbed",2012,0,"Yes",1.04139268515823,1929.325,1.0965568749184,0.160374561573836,3.27531135454181,0.112443681107158,123.7708643,44.56840008,12.7279220613579,1.47062890563334,"E","Impaired","Impaired",NA,"7",14,1.0152349953652,9.35702430383774,0.0261576897930234,-8.31563161867952,"Group 4",20,"Fair","Impaired - Unknown Stressor","NEW","NEW","NEW"
"658","12006MCB","37175","37175 2012","Big Elk Creek at RM 14.31 d/s of Deer Creek","MWCF",0.87,"Moderately disturbed",2012,0,"Yes",0.845098040014257,2165.36577,2.14833169144928,0.0393700393700591,3.2718416065365,0.0851313478202488,123.774683,44.561637,11,1.47062890563334,"E","Attaining","Attaining",NA,"14",14,1.0152349953652,9.35702430383774,-0.170136955350945,-8.51192626382348,"Group 4",20,"Good","Attaining","NEW","NEW","NEW"
"659","12007MCB","37188","37188 2012","Big Elk Creek at RM 12.77","MWCF",0.78,"Most disturbed",2012,0,"Yes",1.17609125905568,2165.36577,2.14833169144928,0.0393700393700591,3.29446622616159,0.0851313478202488,123.793623,44.55324649,10.3440804327886,1.47062890563334,"E","Impaired","Impaired",NA,"15",14,1.0152349953652,9.35702430383774,0.16085626369048,-8.18093304478206,"Group 4",20,"Fair","Impaired - Unknown Stressor","NEW","NEW","NEW"
"660","12008MCB","37187","37187 2012","Big Elk Creek at RM 7.33 east of Salado","MWCF",0.9,"Moderately disturbed",2012,0,"Yes",1.20411998265592,2155.36109,2.23703075166301,0.0431277173056957,3.26387267686522,0.120300298390382,123.8370497,44.566019,6.78232998312527,1.47062890563334,"E","Attaining","Attaining",NA,"16",14,1.0152349953652,9.35702430383774,0.188884987290723,-8.15290432118182,"Group 4",20,"Fair","Attaining","NEW","NEW","NEW"
"661","12010MCB","37182","37182 2012","Bear Creek at RM 2.46 near ATV park","MWCF",1.04,"Least disturbed",2012,0,"Yes",0.954242509439325,2039.763,1.36823703582245,0.173176210837401,3.29950729870049,0.222767472268902,123.8203211,44.61301044,12.9228479833201,1.47062890563334,"E","Attaining","Attaining",NA,"11",14,1.0152349953652,9.35702430383774,-0.0609924859258769,-8.40278179439842,"Group 4",20,"Good","Attaining","NEW","NEW","NEW"
"662","12011MCB","37155","37155 2012","North Fork Siuslaw River at RM 25.49","MWCF",0.96,"Least disturbed",2012,0,"Yes",0.845098040014257,2280.37233,1.50209362315572,0.0875214259481643,3.30835094858673,0.0919274628205219,123.9139642,44.13267818,13.7840487520902,1.42889927219073,"E","Attaining","Attaining",NA,"6",14,1.0152349953652,9.35702430383774,-0.170136955350945,-8.51192626382348,"Group 4",20,"Fair","Attaining","NEW","NEW","NEW"
"663","12012MCB","37162","37162 2012","North Fork Siuslaw River at RM 28.73","MWCF",0.89,"Moderately disturbed",2012,0,"Yes",0.845098040014257,2336.31536,1.20752477026677,0.123207142650092,3.32980452216407,0.0897679575944566,123.9472193,44.15287059,19.5703857907809,1.42889927219073,"E","Attaining","Attaining",NA,"6",14,1.0152349953652,9.35702430383774,-0.170136955350945,-8.51192626382348,"Group 4",20,"Fair","Attaining","NEW","NEW","NEW"
"664","12013MCB","37151","37151 2012","Sam Creek at RM 1.66","MWCF",1.02,"Least disturbed",2012,0,"Yes",1.14612803567824,2373.235,1.04896435164369,0.268719184279798,3.37217528611506,0.239567169071321,123.954423,44.17330857,28.1424945589406,1.42889927219073,"E","Attaining","Attaining",NA,"5",8,0.77466588484141,4.95204059846906,0.371462150836828,-3.80591256279082,"Group 2",11,"Good","Attaining","NEW","NEW","NEW"
"665","12014MCB","37185","37185 2012","Morris Creek at RM 3.82","MWCF",0.65,"Most disturbed",2012,0,"Yes",0.845098040014257,2116.969,1.15420326988334,0.131833227981416,3.31111784266251,0.0900839456815948,124.0340048,44.07437545,18.1659021245849,1.42889927219073,"E","Impaired","Impaired",NA,"15",14,1.0152349953652,9.35702430383774,-0.170136955350945,-8.51192626382348,"Group 4",20,"Fair","Impaired - Unknown Stressor","NEW","NEW","NEW"
"666","12015MCB","37158","37158 2012","North Fork Siuslaw River at RM 19.48","MWCF",0.92,"Least disturbed",2012,0,"Yes",0.903089986991944,2267.68805,1.67607198670553,0.0562138772902208,3.30749603791321,0.0594593981642187,123.9633505,44.07589767,7.87400787401181,1.42889927219073,"E","Attaining","Attaining",NA,"7",14,1.0152349953652,9.35702430383774,-0.112145008373258,-8.4539343168458,"Group 4",20,"Fair","Attaining","NEW","NEW","NEW"
"667","12016MCB","37159","37159 2012","North Fork Siuslaw River at RM 20.13","MWCF",1.05,"Least disturbed",2012,0,"Yes",0.903089986991944,2267.68805,1.67607198670553,0.0562138772902208,3.30835094858673,0.0594593981642187,123.9691545,44.08335104,8.54400374531753,1.42889927219073,"E","Attaining","Attaining",NA,"6",14,1.0152349953652,9.35702430383774,-0.112145008373258,-8.4539343168458,"Group 4",20,"Fair","Attaining","NEW","NEW","NEW"
